,City,Latitude,Longitude,Max Temperature,Humidity,Cloudiness,Wind Speed,Country,Date
0,Puerto Ayora,-0.7393,-90.3518,67.55,94,55,8.99,EC,1632044584
1,Ushuaia,-54.8,-68.3,40.66,70,20,8.05,AR,1632044609
2,Avarua,-21.2078,-159.775,75.25,83,61,11.5,CK,1632044249
3,Dianalund,55.5313,11.4925,57.88,47,84,10.74,DK,1632044610
4,Houston,29.7633,-95.3633,75.34,83,40,0.0,US,1632044448
5,Albany,42.6001,-73.9662,56.59,90,74,4.21,US,1632044104
6,Dikson,73.5069,80.5464,34.86,79,99,21.68,RU,1632044269
7,Atuona,-9.8,-139.0333,77.41,77,20,17.36,PF,1632044611
8,North Bend,43.4065,-124.2243,57.85,95,90,5.75,US,1632044611
9,Týn nad Vltavou,49.2234,14.4206,63.5,65,74,4.83,CZ,1632044611
10,Tuktoyaktuk,69.4541,-133.0374,41.11,91,100,5.01,CA,1632044612
11,Nouadhibou,20.931,-17.0347,76.98,94,68,13.8,MR,1632044612
12,Cape Town,-33.9258,18.4232,63.88,75,75,3.0,ZA,1632044217
13,Port Alfred,-33.5906,26.891,74.23,52,18,8.19,ZA,1632044613
14,Uyemskiy,64.4743,40.8524,46.45,66,75,4.47,RU,1632044613
15,Punta Arenas,-53.15,-70.9167,30.31,100,0,8.05,CL,1632044520
16,Jamestown,42.097,-79.2353,56.52,96,1,0.0,US,1632044264
17,Bredasdorp,-34.5322,20.0403,69.28,55,2,4.61,ZA,1632044283
18,Kenai,60.5544,-151.2583,33.85,93,1,0.0,US,1632044581
19,Valparaíso,-33.0393,-71.6273,51.44,81,40,5.75,CL,1632044393
20,Fortuna,40.5982,-124.1573,59.41,70,90,5.99,US,1632044206
21,Yellowknife,62.456,-114.3525,41.52,100,75,10.36,CA,1632044614
22,Babanka,48.7097,30.4483,67.6,48,35,11.18,UA,1632044614
23,Samfya,-11.3649,29.5565,85.17,29,4,7.18,ZM,1632044615
24,Rikitea,-23.1203,-134.9692,72.82,76,4,7.54,PF,1632044615
25,Mataura,-46.1927,168.8643,47.48,99,100,2.28,NZ,1632044615
26,Carnarvon,-24.8667,113.6333,73.47,60,0,16.11,AU,1632044536
27,Castro,-24.7911,-50.0119,62.65,91,1,2.89,BR,1632044616
28,Upata,8.0086,-62.3989,73.18,98,74,2.37,VE,1632044616
29,Kang,-23.6752,22.7876,80.58,31,0,15.97,BW,1632044617
30,Sambava,-14.2667,50.1667,76.42,79,85,12.55,MG,1632044116
31,Gamba,-2.65,10.0,80.91,66,35,7.09,GA,1632044130
32,Palauig,15.435,119.9045,83.44,77,99,2.93,PH,1632044617
33,Bambous Virieux,-20.3428,57.7575,76.21,60,75,13.8,MU,1632044618
34,New Norfolk,-42.7826,147.0587,49.91,71,52,1.99,AU,1632043957
35,Lebu,-37.6167,-73.65,45.3,83,3,10.85,CL,1632044282
36,Vila Franca do Campo,37.7167,-25.4333,70.21,61,45,7.25,PT,1632044618
37,Port Elizabeth,-33.918,25.5701,77.09,52,0,18.41,ZA,1632044538
38,Hong Kong,22.2855,114.1577,88.97,82,26,11.72,HK,1632044456
39,Upernavik,72.7868,-56.1549,20.95,58,12,6.24,GL,1632044619
40,Norman Wells,65.282,-126.8329,42.84,81,40,5.75,CA,1632044619
41,St. George's,12.0564,-61.7485,76.68,88,20,0.0,GD,1632044619
42,Bluff,-46.6,168.3333,47.8,81,90,14.7,NZ,1632044620
43,Hermanus,-34.4187,19.2345,69.8,59,5,16.13,ZA,1632044620
44,Rocha,-34.4833,-54.3333,54.39,98,47,5.53,UY,1632044620
45,Curup,-3.4667,102.5333,71.87,94,100,2.19,ID,1632044621
46,Busselton,-33.65,115.3333,60.04,69,63,9.24,AU,1632044519
47,Nantucket,41.2835,-70.0995,66.96,93,4,21.61,US,1632044519
48,Jardim,-21.4803,-56.1381,77.94,40,100,3.15,BR,1632044357
49,Pechora,65.1472,57.2244,42.21,59,100,18.28,RU,1632044621
50,Khovu-Aksy,51.1333,93.6,67.17,33,41,6.02,RU,1632044622
51,Kenora,49.8167,-94.4337,61.99,72,20,11.5,CA,1632044622
52,Balabac,7.9868,117.0645,83.16,72,50,3.4,PH,1632044382
53,Taitung City,22.7583,121.1444,84.47,79,75,3.44,TW,1632044623
54,Arica,-18.475,-70.3042,59.23,77,90,4.61,CL,1632044623
55,Owando,-0.4819,15.8999,87.91,50,100,4.14,CG,1632044623
56,Kaitangata,-46.2817,169.8464,46.2,95,100,3.6,NZ,1632043968
57,Meadow Lake,34.8014,-106.5436,72.32,49,96,2.21,US,1632044624
58,Gwadar,25.1216,62.3254,84.79,71,25,12.84,PK,1632044624
59,Kapaa,22.0752,-159.319,79.12,73,1,1.01,US,1632044624
60,Borgarnes,64.5383,-21.9206,49.64,81,91,5.39,IS,1632044625
61,Grand Gaube,-20.0064,57.6608,76.37,58,100,8.99,MU,1632044369
62,Le Creusot,46.8071,4.4163,55.47,94,100,8.1,FR,1632044625
63,Viedma,-40.8135,-62.9967,49.51,92,100,6.24,AR,1632044331
64,Padang,-0.9492,100.3543,84.25,83,99,2.01,ID,1632044394
65,Barrow,71.2906,-156.7887,30.22,80,1,14.97,US,1632044626
66,Kavaratti,10.5669,72.642,82.17,76,94,12.06,IN,1632044626
67,Port Shepstone,-30.7414,30.455,68.05,66,53,22.53,ZA,1632044626
68,Chui,-33.6971,-53.4616,57.34,98,15,7.58,UY,1632044038
69,Kambove,-10.8764,26.5969,84.25,29,14,7.96,CD,1632044627
70,Aklavik,68.2191,-135.0107,43.63,90,100,6.67,CA,1632044627
71,Ambilobe,-13.2,49.05,91.02,38,98,7.0,MG,1632044627
72,Hobart,-42.8794,147.3294,49.86,67,20,7.0,AU,1632044237
73,Ahipara,-35.1667,173.1667,54.95,85,100,9.4,NZ,1632044628
74,Khuzdar,27.7384,66.6434,94.14,18,0,5.79,PK,1632044628
75,Mitsamiouli,-11.3847,43.2844,86.29,62,40,28.77,KM,1632044628
76,Am Timan,11.0297,20.2827,85.33,61,49,3.76,TD,1632044629
77,Kanlagay,5.8757,121.2915,82.96,72,99,3.71,PH,1632044629
78,Nome,64.5011,-165.4064,44.67,77,90,0.0,US,1632044630
79,Wewak,-3.5534,143.6268,79.43,86,99,5.57,PG,1632044630
80,Tokmak,47.2514,35.7058,69.66,69,100,8.39,UA,1632044630
81,Bandarbeyla,9.4942,50.8122,88.05,58,88,28.68,SO,1632044631
82,Ancud,-41.8697,-73.8203,39.42,88,7,2.42,CL,1632044035
83,Townsville,-19.25,146.8,70.68,73,6,8.05,AU,1632044631
84,Andra,62.5147,65.8878,34.88,96,100,18.45,RU,1632044632
85,San Jose,37.3394,-121.895,66.81,80,90,8.05,US,1632044392
86,Sinnamary,5.3833,-52.95,78.46,85,58,6.98,GF,1632044337
87,Forsytheganj,52.6333,29.7333,52.47,82,99,4.7,BY,1632044632
88,Faanui,-16.4833,-151.75,78.4,74,32,17.38,PF,1632044327
89,Ko Samui,9.5357,99.9357,89.51,66,0,11.5,TH,1632044043
90,Bichena,10.45,38.2,67.12,56,1,7.0,ET,1632044633
91,Keetmanshoop,-26.5833,18.1333,74.32,14,0,4.61,NA,1632044633
92,Taoudenni,22.6783,-3.9836,104.02,11,6,24.4,ML,1632044410
93,Mahébourg,-20.4081,57.7,76.24,60,75,13.8,MU,1632044634
94,Samarai,-10.6167,150.6667,78.53,89,100,20.09,PG,1632044137
95,Mumford,5.2618,-0.759,78.6,79,59,9.01,GH,1632044634
96,Puerto Peñasco,31.3167,-113.5333,85.35,63,0,2.84,MX,1632044635
97,Palmer,42.1584,-72.3287,63.21,73,1,6.91,US,1632044635
98,Mayo,38.8876,-76.5119,72.55,93,0,9.8,US,1632044636
99,Bosaso,11.2842,49.1816,91.38,79,0,9.22,SO,1632044636
100,Thompson,55.7435,-97.8558,51.96,87,75,2.3,CA,1632044636
101,Gushikawa,26.3544,127.8686,80.19,69,1,8.05,JP,1632044637
102,Cabo San Lucas,22.8909,-109.9124,84.51,73,92,10.11,MX,1632044367
103,Saint Paul Harbor,57.79,-152.4072,44.38,69,1,1.99,US,1632044637
104,Plettenberg Bay,-34.0527,23.3716,65.91,63,99,16.87,ZA,1632044637
105,Vaini,-21.2,-175.2,71.76,88,40,6.91,TO,1632044638
106,Akhtyrskiy,44.8546,38.3031,76.89,67,100,10.38,RU,1632044638
107,Flagstaff,35.1981,-111.6513,59.41,93,75,0.0,US,1632044639
108,Batagay,67.6333,134.6333,32.7,89,100,3.74,RU,1632044058
109,Vaitape,-16.5167,-151.75,78.4,74,31,17.38,PF,1632044410
110,Torbay,47.6666,-52.7314,59.29,95,90,6.91,CA,1632044131
111,Baruun-Urt,46.6806,113.2792,59.77,67,100,13.94,MN,1632044639
112,Butaritari,3.0707,172.7902,83.26,67,94,15.79,KI,1632044640
113,Maningrida,-12.0667,134.2667,79.29,65,97,11.54,AU,1632044640
114,Nago,26.5881,127.9761,81.03,69,12,4.41,JP,1632044640
115,Edd,13.9297,41.6925,95.9,51,40,20.6,ER,1632044641
116,Doha,25.2867,51.5333,104.31,40,0,8.05,QA,1632044641
117,Pandan,14.0453,124.1694,79.61,85,100,5.79,PH,1632044641
118,Tymovskoye,50.8456,142.655,41.9,81,8,3.65,RU,1632044642
119,Buncrana,55.1333,-7.45,58.82,84,27,9.42,IE,1632044642
120,Meulaboh,4.1363,96.1285,75.61,92,100,8.72,ID,1632044643
121,Ryōtsu-minato,38.0833,138.4333,73.36,73,100,13.49,JP,1632044643
122,Aksu,41.1231,80.2644,88.16,15,0,5.77,CN,1632044643
123,Kuna,43.4918,-116.4201,58.01,74,1,1.99,US,1632044583
124,Verkhnevilyuysk,63.4453,120.3167,36.46,62,93,5.21,RU,1632044644
125,Mar del Plata,-38.0023,-57.5575,51.82,100,90,10.36,AR,1632043966
126,Talnakh,69.4865,88.3972,40.87,97,100,1.39,RU,1632044644
127,Mayor Pablo Lagerenza,-19.9309,-60.7718,75.58,46,23,6.31,PY,1632044645
128,Vila Velha,-20.3297,-40.2925,71.55,78,0,3.44,BR,1632044032
129,Sabha,27.0377,14.4283,93.0,16,0,15.52,LY,1632044645
130,Fairbanks,64.8378,-147.7164,38.3,73,90,5.75,US,1632044646
131,Carutapera,-1.195,-46.02,78.89,84,27,8.61,BR,1632044646
132,Luwuk,-0.9516,122.7875,78.15,88,97,4.9,ID,1632044646
133,Aquiraz,-3.9014,-38.3911,79.18,68,35,14.47,BR,1632044052
134,Banjar,-8.19,114.9675,82.26,80,43,4.29,ID,1632044647
135,Kupang,-10.1667,123.5833,80.51,72,31,12.88,ID,1632044316
136,Iqaluit,63.7506,-68.5145,31.73,93,90,5.75,CA,1632044145
137,Kirakira,-10.4544,161.9205,79.29,87,88,12.66,SB,1632044647
138,Halifax,44.6453,-63.5724,62.65,94,90,5.99,CA,1632044384
139,Tiksi,71.6872,128.8694,34.63,73,100,19.84,RU,1632044648
140,Kochubey,44.3861,46.5825,73.53,48,85,20.42,RU,1632044648
141,Filimonovo,56.2011,95.4611,62.02,69,100,2.1,RU,1632044648
142,Monroe,43.1501,-77.6831,56.48,96,20,0.0,US,1632044649
143,San Patricio,28.017,-97.5169,80.46,82,0,4.09,US,1632044649
144,Phek,25.6667,94.5,66.88,96,46,0.65,IN,1632044650
145,Qaanaaq,77.484,-69.3632,14.29,84,100,6.93,GL,1632044650
146,Acapulco de Juárez,16.8634,-99.8901,76.32,84,99,4.36,MX,1632044651
147,Mindelo,16.8901,-24.9804,80.15,83,75,13.8,CV,1632044651
148,Saldanha,-33.0117,17.9442,59.05,78,100,20.47,ZA,1632044651
149,Nikolskoye,59.7035,30.7861,46.29,50,100,10.69,RU,1632044652
150,Airai,-8.9266,125.4092,61.72,68,68,4.18,TL,1632044539
151,Russell,32.3502,-85.1999,74.48,94,90,0.0,US,1632044652
152,Sonqor,34.7837,47.6004,83.21,14,0,7.31,IR,1632044652
153,George Town,5.4112,100.3354,86.9,68,20,8.05,MY,1632043961
154,Shingū,33.7333,135.9833,79.92,88,49,4.03,JP,1632044027
155,Mount Isa,-20.7333,139.5,83.97,21,0,5.75,AU,1632044653
156,Noumea,-22.2763,166.4572,66.18,68,14,11.18,NC,1632044653
157,São Francisco,-15.9486,-44.8644,70.03,26,41,2.84,BR,1632044654
158,Hilo,19.7297,-155.09,72.81,93,90,8.05,US,1632044654
159,Brufut,13.3814,-16.7518,71.69,100,75,11.5,GM,1632044654
160,Piaçabuçu,-10.4056,-36.4344,75.18,78,19,5.06,BR,1632044655
161,Maunabo,18.0072,-65.8993,80.44,94,25,7.56,PR,1632044655
162,Lüderitz,-26.6481,15.1594,63.05,58,17,7.9,NA,1632044096
163,Ariquemes,-9.9133,-63.0408,74.19,87,96,2.13,BR,1632044656
164,Khatanga,71.9667,102.5,36.66,61,97,11.39,RU,1632044007
165,Harbour Breton,47.4833,-55.7983,59.02,93,100,5.73,CA,1632044656
166,Nanortalik,60.1432,-45.2371,37.96,99,100,11.03,GL,1632044657
167,Praia,14.9215,-23.5087,81.14,89,40,4.61,CV,1632044657
168,Horsham,51.064,-0.3272,67.01,87,96,4.61,GB,1632044658
169,Chokurdakh,70.6333,147.9167,27.16,79,46,8.9,RU,1632044290
170,Otradnoye,59.7775,30.8181,46.45,50,100,10.69,RU,1632044658
171,São João da Barra,-21.6403,-41.0511,71.69,88,6,9.93,BR,1632044073
172,Cidreira,-30.1811,-50.2056,63.72,95,8,6.44,BR,1632044659
173,Ternate,0.8,127.4,80.17,81,84,3.27,ID,1632044659
174,Cairns,-16.9167,145.7667,73.35,72,90,11.5,AU,1632044647
175,Yeniseysk,58.4497,92.1703,52.79,64,100,3.98,RU,1632044313
176,Narsaq,60.9167,-46.05,41.22,98,100,10.0,GL,1632044660
177,Deputatsky,69.3,139.9,23.63,90,100,15.86,RU,1632044093
178,Ribeira Grande,38.5167,-28.7,68.4,68,20,9.22,PT,1632044269
179,Longyearbyen,78.2186,15.6401,49.84,71,75,17.27,SJ,1632044469
180,Mariinsk,56.2139,87.7472,56.08,47,100,9.35,RU,1632044661
181,Waikuku,-43.3,172.6833,55.02,58,100,8.37,NZ,1632044661
182,Changji,44.0167,87.3167,92.19,17,0,6.71,CN,1632044661
183,Saskylakh,71.9167,114.0833,31.48,76,98,5.93,RU,1632044532
184,Qaqortoq,60.7167,-46.0333,41.5,96,100,14.12,GL,1632044662
185,Batken,39.8333,71.0,71.82,13,0,9.75,KG,1632044662
186,Saint-Joseph,-21.3667,55.6167,77.36,61,99,10.83,RE,1632044663
187,Soplaviento,10.3931,-75.1408,78.94,95,100,9.19,CO,1632044663
188,Tromsø,69.6496,18.957,50.65,62,0,5.75,NO,1632044663
189,Hervey Bay,-25.2986,152.8535,68.11,74,0,11.95,AU,1632044664
190,Puerto Madryn,-42.7692,-65.0385,51.93,57,98,2.1,AR,1632044452
191,Dhulian,24.6833,87.9667,90.77,60,44,2.64,IN,1632044665
192,Antalaha,-14.9003,50.2788,74.39,87,90,11.81,MG,1632044665
193,Namtsy,62.7161,129.6658,42.91,71,100,16.24,RU,1632044665
194,Moree,-29.4667,149.85,60.82,55,0,8.05,AU,1632044666
195,Somotillo,13.0433,-86.9064,73.96,82,100,1.54,NI,1632044666
196,Huilong,31.8111,121.655,78.98,81,46,16.53,CN,1632044666
197,Kargasok,59.0556,80.8572,41.94,93,100,3.09,RU,1632044667
198,Saint-Philippe,-21.3585,55.7679,78.35,63,100,11.41,RE,1632044667
199,Kiryat Gat,31.61,34.7642,89.4,39,0,11.48,IL,1632044404
200,Caravelas,-17.7125,-39.2481,71.87,78,22,6.55,BR,1632044668
201,Mbalmayo,3.5167,11.5,77.32,79,100,2.55,CM,1632044668
202,Ankang,32.68,109.0172,73.69,82,81,3.09,CN,1632044668
203,Hithadhoo,-0.6,73.0833,83.62,71,99,8.16,MV,1632044244
204,Akaltara,22.0167,82.4333,86.79,65,99,3.58,IN,1632044669
205,Dwārka,22.2394,68.9678,85.05,72,68,8.72,IN,1632044669
206,Yebaishou,41.3975,119.6408,63.9,70,100,3.27,CN,1632044670
207,Arraial do Cabo,-22.9661,-42.0278,69.76,100,75,0.0,BR,1632044670
208,Bethel,41.3712,-73.414,66.56,83,1,1.01,US,1632044322
209,Genhe,50.7833,121.5167,45.32,69,0,2.95,CN,1632044670
210,Olafsvik,64.8945,-23.7142,47.08,71,50,5.5,IS,1632044671
211,Nova Ushytsya,48.8372,27.2743,46.67,88,100,11.41,UA,1632044671
212,Havelock,34.8791,-76.9013,72.95,95,2,4.07,US,1632044536
213,Korla,41.7597,86.1469,89.47,12,0,12.97,CN,1632044671
214,Zhigansk,66.7697,123.3711,37.9,69,100,10.04,RU,1632044672
215,Birjand,32.8663,59.2211,90.07,9,0,4.61,IR,1632044672
216,Flin Flon,54.7682,-101.865,52.09,71,100,7.18,CA,1632044338
217,Marakkanam,12.2,79.95,87.24,64,99,14.67,IN,1632044672
218,Severo-Kuril'sk,50.6789,156.125,51.46,95,99,13.04,RU,1632044673
219,Havøysund,70.9963,24.6622,49.08,66,100,5.86,NO,1632044673
220,Yangi Marg`ilon,40.4272,71.7189,90.75,15,0,9.22,UZ,1632044673
221,La Providencia,28.7167,-111.5833,83.86,88,95,4.32,MX,1632044674
222,Kavieng,-2.5744,150.7967,82.17,78,56,11.48,PG,1632044674
223,Port Lincoln,-34.7333,135.8667,57.29,87,90,17.87,AU,1632044675
224,Saint George,37.1041,-113.5841,70.54,72,1,1.01,US,1632044675
225,Casper,42.8666,-106.3131,65.5,55,1,20.0,US,1632044588
226,Mossamedes,-15.1961,12.1522,65.03,77,0,8.05,AO,1632044212
227,Olinda,-8.0089,-34.8553,73.13,73,40,3.44,BR,1632044676
228,Eyl,7.9803,49.8164,93.27,46,22,22.53,SO,1632044676
229,Tchaourou,8.8865,2.5975,77.67,83,100,5.97,BJ,1632044676
230,Mongo,12.1844,18.693,80.78,70,92,3.51,TD,1632044677
231,Ust-Tsilma,65.441,52.1498,41.05,66,100,11.59,RU,1632044677
232,Hambantota,6.1241,81.1185,89.94,74,20,16.11,LK,1632044677
233,Gusinoye Ozero,51.1144,106.2614,64.81,62,33,4.23,RU,1632044678
234,Santiago del Estero,-27.7951,-64.2615,67.57,60,49,7.34,AR,1632044282
235,Ostrovnoy,68.0531,39.5131,45.39,56,6,3.13,RU,1632044678
236,Beloha,-25.1667,45.05,69.87,47,99,9.48,MG,1632044326
237,Klaksvík,62.2266,-6.589,52.72,95,100,15.28,FO,1632044305
238,Araouane,18.9048,-3.5265,98.91,14,25,4.21,ML,1632044679
239,Lorengau,-2.0226,147.2712,81.54,79,90,7.76,PG,1632044679
240,Kahului,20.8947,-156.47,74.46,86,20,11.5,US,1632044259
241,Ixtapa,20.7,-105.2,75.22,100,100,1.77,MX,1632044679
242,Asău,46.4333,26.4,66.96,55,45,15.93,RO,1632044680
243,San Quintín,30.4833,-115.95,66.63,85,39,12.19,MX,1632044680
244,Lompoc,34.6391,-120.4579,57.92,84,90,0.0,US,1632044680
245,Pidhorodne,48.5753,35.1068,69.04,47,98,9.64,UA,1632044681
246,Kununurra,-15.7667,128.7333,89.58,43,62,3.44,AU,1632044681
247,Kuala Terengganu,5.3302,103.1408,85.95,70,20,3.44,MY,1632044682
248,Bengkulu,-3.8004,102.2655,79.0,86,79,10.2,ID,1632044682
249,Souillac,-20.5167,57.5167,76.35,60,75,13.8,MU,1632044682
250,Ayan,56.45,138.1667,45.77,58,100,13.49,RU,1632044683
251,Sakakah,29.9697,40.2064,98.17,16,0,2.71,SA,1632044683
252,Aromashevo,56.8602,68.6375,35.71,96,100,13.91,RU,1632044684
253,Vestmanna,62.1564,-7.1664,50.92,100,90,12.66,FO,1632044684
254,Whitianga,-36.8333,175.7,53.02,81,100,7.94,NZ,1632044684
255,Srednekolymsk,67.45,153.6833,33.04,56,67,18.21,RU,1632044246
256,Newport,51.5877,-2.9984,66.11,79,100,5.88,GB,1632044685
257,Sur,22.5667,59.5289,94.84,46,8,18.32,OM,1632044097
258,Costa Rica,-23.4167,-54.65,74.71,47,45,5.14,BR,1632044685
259,Kruisfontein,-34.0033,24.7314,74.88,44,99,17.45,ZA,1632044274
260,Durango,24.8333,-104.8333,57.61,58,2,3.13,MX,1632044658
261,Ninotsminda,41.2646,43.5916,72.05,37,12,6.6,GE,1632044686
262,Tabou,4.423,-7.3528,80.42,76,38,7.0,CI,1632044686
263,Half Moon Bay,37.4636,-122.4286,66.6,89,90,0.0,US,1632044542
264,Bonfim,3.0833,-59.95,74.12,89,19,1.19,BR,1632044686
265,Linhares,-19.3911,-40.0722,71.85,80,10,7.27,BR,1632044687
266,Tavda,58.0425,65.2726,37.47,94,100,12.44,RU,1632044687
267,Cherskiy,68.75,161.3,27.23,72,3,7.65,RU,1632044517
268,Nālūt,30.3333,10.85,94.03,12,0,14.0,LY,1632044687
269,Nanchong,30.7951,106.0847,77.0,75,69,7.18,CN,1632044688
270,Acajutla,13.5928,-89.8275,77.31,82,74,5.21,SV,1632044688
271,Jacqueville,5.2052,-4.4146,82.31,83,76,5.55,CI,1632044689
272,Ponta do Sol,32.6667,-17.1,76.12,54,77,7.34,PT,1632044689
273,The Valley,18.217,-63.0578,82.09,75,0,13.49,AI,1632044689
274,Maposeni,-10.5833,35.4,73.78,54,83,7.16,TZ,1632044690
275,Mullingar,53.5333,-7.35,60.76,85,5,9.15,IE,1632044690
276,Krasnotorka,48.682,37.5327,63.01,86,100,12.93,UA,1632044690
277,Durban,-29.8579,31.0292,74.32,72,29,5.99,ZA,1632044650
278,Cockburn Town,21.4612,-71.1419,82.65,71,25,15.46,TC,1632044691
279,Marawi,7.9986,124.2928,73.65,94,94,1.74,PH,1632044691
280,Muros,42.7762,-9.0603,70.23,79,22,2.48,ES,1632044692
281,Touros,-5.1989,-35.4608,70.7,60,39,15.97,BR,1632043993
282,Ossora,59.2353,163.0719,48.85,83,100,0.94,RU,1632044530
283,Davenda,53.5556,119.317,48.79,77,7,5.26,RU,1632044692
284,Río Gallegos,-51.6226,-69.2181,39.25,93,75,10.36,AR,1632044693
285,Sitka,57.0531,-135.33,51.69,82,90,3.44,US,1632044693
286,East London,-33.0153,27.9116,74.34,49,0,12.66,ZA,1632044694
287,Polunochnoye,60.8697,60.4153,41.65,57,90,10.74,RU,1632044694
288,Vallenar,-28.5708,-70.7581,57.18,65,100,3.76,CL,1632044694
289,Linqiong,30.4159,103.4609,84.02,62,21,6.13,CN,1632044694
290,Phalombe,-15.8064,35.6507,71.69,54,93,4.79,MW,1632044294
291,Arman',59.7,150.1667,44.74,89,36,5.1,RU,1632044695
292,La Orilla,17.9833,-102.2333,74.39,91,100,4.79,MX,1632044695
293,Leningradskiy,69.3833,178.4167,26.11,87,98,19.73,RU,1632044696
294,Tokoroa,-38.2333,175.8667,51.15,74,100,3.0,NZ,1632044696
295,Santiago,-33.4569,-70.6483,43.75,93,40,5.75,CL,1632044696
296,Escanaba,45.7453,-87.0646,61.93,100,1,0.0,US,1632044697
297,Wuwei,37.9281,102.6414,71.33,28,42,8.43,CN,1632044120
298,Bangassou,4.7413,22.8184,83.7,63,98,2.66,CF,1632044697
299,Kem',64.9555,34.5793,46.08,60,100,5.77,RU,1632044697
300,Naifaru,5.4444,73.3657,83.17,74,89,9.26,MV,1632044698
301,Yar-Sale,66.8333,70.8333,36.91,98,100,17.43,RU,1632044698
302,Norfolk,42.1668,-71.2495,65.46,92,75,0.0,US,1632044573
303,Vao,-22.6667,167.4833,68.13,62,8,16.51,NC,1632044699
304,Manokwari,-0.8667,134.0833,79.84,82,100,8.88,ID,1632044699
305,Byron Bay,-28.65,153.6167,68.88,88,28,6.06,AU,1632044420
306,Bereda,43.2686,-7.5406,62.42,59,34,2.46,ES,1632044699
307,Villa Constitución,-33.2278,-60.3297,57.16,98,46,4.65,AR,1632044700
308,Mount Gambier,-37.8333,140.7667,51.71,82,40,18.41,AU,1632044700
309,Pacific Grove,36.6177,-121.9166,62.8,90,40,1.01,US,1632044278
310,Mana,5.6592,-53.7767,77.14,89,93,6.35,GF,1632044701
311,Znamenskoye,57.1281,73.8282,41.45,73,100,12.15,RU,1632044701
312,Provideniya,64.3833,-173.3,38.75,94,96,8.39,RU,1632043957
313,Sibolga,1.7427,98.7792,75.18,94,100,1.88,ID,1632044385
314,Labuhan,-6.8844,112.2051,84.92,63,36,11.1,ID,1632044406
315,Neuquén,-38.9516,-68.0591,42.69,56,0,0.0,AR,1632044703
316,Bubaque,11.2833,-15.8333,79.02,84,100,11.36,GW,1632044704
317,Amqui,48.4638,-67.4313,48.69,95,63,4.0,CA,1632044473
318,Verkhoyansk,67.5447,133.385,33.21,82,100,8.23,RU,1632044704
319,Tanout,14.9709,8.8879,92.55,33,53,8.79,NE,1632044705
320,Boyolangu,-8.1181,111.8935,77.34,82,59,9.71,ID,1632044705
321,San Luis,-33.295,-66.3356,60.69,56,47,1.81,AR,1632044482
322,Uvalde,29.3669,-99.767,74.52,100,1,6.91,US,1632044705
323,Kedrovyy,56.1667,91.8167,55.81,54,100,2.82,RU,1632044706
324,Williston,48.147,-103.618,72.01,35,7,10.0,US,1632044521
325,Adrar,20.5022,-10.0711,86.99,28,4,17.92,MR,1632044706
326,San Jacinto,33.7839,-116.9586,72.32,69,0,1.19,US,1632044683
327,Mīzan Teferī,6.9833,35.5833,75.6,63,69,3.0,ET,1632044707
328,Geraldton,-28.7667,114.6,68.41,68,1,18.41,AU,1632044258
329,Uyar,55.81,94.3153,60.3,70,100,2.21,RU,1632044707
330,Florø,61.5996,5.0328,60.87,72,90,10.36,NO,1632044707
331,Atar,20.5169,-13.0499,84.25,24,95,11.5,MR,1632044098
332,Paamiut,61.994,-49.6678,36.95,74,97,9.78,GL,1632044708
333,Vanavara,60.34,102.2797,52.18,69,90,5.53,RU,1632044708
334,Turan,16.0678,108.2208,78.85,88,75,2.3,VN,1632044592
335,Port Hardy,50.6996,-127.4199,50.0,93,75,0.0,CA,1632044709
336,Carauari,-4.8828,-66.8958,71.2,99,63,2.06,BR,1632044709
337,Ilhabela,-23.7781,-45.3581,70.52,91,16,2.26,BR,1632044709
338,São Filipe,14.8961,-24.4956,80.47,80,76,4.59,CV,1632044710
339,Hasaki,35.7333,140.8333,70.2,62,97,22.37,JP,1632044298
340,Ilulissat,69.2167,-51.1,19.42,63,0,3.44,GL,1632044710
341,Harper,4.375,-7.7169,80.35,77,70,7.2,LR,1632044711
342,Abdulino,53.7,53.6667,49.46,41,76,12.19,RU,1632044711
343,Le Vauclin,14.5452,-60.8388,71.65,100,0,3.44,MQ,1632044711
344,Cap-aux-Meules,47.3821,-61.8597,57.25,82,75,10.36,CA,1632044712
345,Mizque,-17.941,-65.3402,58.68,79,3,3.29,BO,1632044712
346,Clyde River,70.4692,-68.5914,27.91,80,97,3.24,CA,1632044208
347,Ferme-Neuve,46.7001,-75.4493,42.58,97,93,3.06,CA,1632044712
348,Beringovskiy,63.05,179.3167,46.33,81,100,7.9,RU,1632044713
349,Paphos,34.7667,32.4167,89.24,62,20,6.91,CY,1632044713
350,Lavrentiya,65.5833,-171.0,32.63,86,100,9.17,RU,1632044714
351,Shimoda,34.6667,138.95,73.67,73,32,13.06,JP,1632044142
352,Tvøroyri,61.5556,-6.8111,52.99,92,100,17.25,FO,1632044714
353,Constitución,-35.3333,-72.4167,45.86,77,9,7.16,CL,1632044714
354,Ntcheu,-14.8203,34.6359,73.67,44,64,7.9,MW,1632044715
355,Ola,59.5833,151.2833,45.95,86,71,5.44,RU,1632044715
356,Rome,43.2128,-75.4557,53.46,95,1,0.0,US,1632044484
357,Usinsk,65.9939,57.5281,42.96,57,100,24.96,RU,1632044716
358,Danielskuil,-28.1887,23.5395,73.94,27,3,26.49,ZA,1632044716
359,San Blas,21.5167,-105.2667,77.99,90,97,4.76,MX,1632044716
360,Van,38.4924,43.3831,70.95,43,20,11.5,TR,1632044717
361,Anadyr,64.75,177.4833,37.9,65,40,13.42,RU,1632044717
362,Darhan,49.4867,105.9228,67.08,56,42,5.44,MN,1632044717
363,Praia da Vitória,38.7333,-27.0667,70.75,83,40,10.71,PT,1632044718
364,Bonavista,48.6499,-53.1147,59.11,98,100,9.35,CA,1632044718
365,Kaeo,-35.1,173.7833,53.33,84,100,7.38,NZ,1632044718
366,Hihyā,30.6713,31.588,86.88,20,0,11.21,EG,1632044719
367,Morondava,-20.2833,44.2833,78.69,45,96,20.15,MG,1632044719
368,Altamont,42.2068,-121.7372,48.78,92,1,4.61,US,1632044720
369,Jalu,29.0331,21.5482,93.11,21,0,6.15,LY,1632044720
370,Honningsvåg,70.9821,25.9704,45.73,74,100,21.72,NO,1632044720
371,Bireun,5.203,96.7009,79.27,82,99,8.39,ID,1632044721
372,Mwinilunga,-11.7358,24.4293,90.03,18,20,8.95,ZM,1632044721
373,Rawson,-43.3002,-65.1023,49.68,58,50,2.3,AR,1632044176
374,Cayenne,4.9333,-52.3333,78.1,88,31,0.0,GF,1632044722
375,Dingle,10.9995,122.6711,77.77,89,100,4.45,PH,1632044722
376,Laas,46.6166,10.7002,61.68,80,91,5.28,IT,1632044722
377,Vanimo,-2.6741,141.3028,78.4,85,86,2.51,PG,1632044723
378,Yei,4.095,30.6779,85.53,52,42,2.71,SS,1632044723
379,Catalina,32.5056,-110.9211,73.38,69,0,1.41,US,1632044724
380,Takoradze,4.8845,-1.7554,79.86,76,76,6.17,GH,1632044528
381,College,64.8569,-147.8028,39.65,73,90,4.61,US,1632044659
382,Mehamn,71.0357,27.8492,48.11,64,100,12.44,NO,1632044514
383,Marsh Harbour,26.5412,-77.0636,81.61,70,75,2.59,BS,1632044724
384,Gornyy,55.1153,83.9059,56.48,49,88,12.06,RU,1632044724
385,Camaná,-16.6228,-72.7111,59.97,87,100,6.49,PE,1632044725
386,Tasiilaq,65.6145,-37.6368,35.76,60,100,3.8,GL,1632044725
387,Vardø,70.3705,31.1107,46.6,66,16,20.87,NO,1632044726
388,Chumikan,54.7183,135.315,51.33,56,91,11.56,RU,1632044539
389,Areni,39.7191,45.1799,80.96,21,2,7.96,AM,1632044726
390,San Cristobal,7.7669,-72.225,63.81,96,94,1.7,VE,1632044542
391,Nānākuli,21.3906,-158.1547,78.75,76,1,6.91,US,1632044726
392,Tuburan,6.6439,122.2736,84.29,74,85,4.76,PH,1632044727
393,Tamandaré,-8.7597,-35.1047,76.21,72,56,4.79,BR,1632044727
394,Warrington,53.3925,-2.5802,64.33,78,0,1.99,GB,1632044728
395,Tegul'det,57.3064,88.1667,53.24,56,100,7.85,RU,1632044728
396,Qiyang,26.5911,111.8474,91.87,46,26,12.21,CN,1632044728
397,Abasolo,20.45,-101.5167,54.41,90,55,2.73,MX,1632044729
398,Marystown,47.1666,-55.1483,57.63,94,100,4.76,CA,1632044729
399,Kommunisticheskiy,61.6789,64.4819,35.58,96,100,14.65,RU,1632044729
400,Henderson,36.0397,-114.9819,81.84,18,1,16.11,US,1632044597
401,Lodja,-3.4833,23.4333,84.11,51,99,2.39,CD,1632044730
402,Diré,12.2833,-10.9667,82.81,76,43,2.13,ML,1632044730
403,Dauphin,51.1494,-100.0502,71.74,56,75,9.22,CA,1632044730
404,Trairi,-3.2778,-39.2689,78.22,64,20,13.0,BR,1632044589
405,Luena,-11.7833,19.9167,89.76,24,66,7.78,AO,1632044731
406,Kalmunai,7.4167,81.8167,85.91,69,68,10.4,LK,1632044731
407,Broome,42.2506,-75.833,55.78,82,1,6.91,US,1632044732
408,Aguçadoura,41.4318,-8.7804,67.32,56,71,7.52,PT,1632044732
409,Manoel Urbano,-8.8389,-69.2597,72.07,88,5,2.91,BR,1632044733
410,Salinas,36.6777,-121.6555,63.57,85,1,4.61,US,1632044638
411,Mahibadhoo,3.7833,72.9667,83.03,73,81,6.22,MV,1632044733
412,Codrington,-38.2667,141.9667,49.44,83,97,18.79,AU,1632044733
413,Tres Arroyos,-38.3739,-60.2798,50.4,97,35,7.25,AR,1632044734
414,El Limon,10.3059,-67.6321,69.96,87,31,1.07,VE,1632044734
415,Chitral,35.8462,71.7858,85.98,40,26,8.03,PK,1632044656
416,Lubao,14.9167,120.55,82.42,86,100,4.36,PH,1632044735
417,Digby,44.6169,-65.7655,61.59,89,99,13.78,CA,1632044735
418,Paka,4.6374,103.4368,76.93,94,40,5.75,MY,1632044735
419,Cuenca,-2.8833,-78.9833,46.53,100,63,0.0,EC,1632044687
420,Rantauprapat,2.1,99.8333,76.8,94,100,2.73,ID,1632044736
421,Mitla,16.9167,-96.4,58.91,87,78,3.4,MX,1632044737
422,Kamaishi,39.2667,141.8833,70.75,85,79,1.05,JP,1632044737
423,Ca Mau,9.1769,105.15,80.38,82,99,7.36,VN,1632044737
424,Khorixas,-20.3667,14.9667,85.68,14,6,2.26,NA,1632044536
425,Safi,32.2994,-9.2372,72.09,66,72,7.27,MA,1632044738
426,Xiongzhou,25.1167,114.3,87.94,60,31,4.88,CN,1632044738
427,Barcelos,41.5388,-8.6151,66.92,46,72,4.65,PT,1632044738
428,Los Llanos de Aridane,28.6585,-17.9182,72.12,73,75,12.66,ES,1632044739
429,Nishihara,26.1842,127.7558,80.26,69,20,5.75,JP,1632044739
430,Bereket,39.2446,55.5154,87.53,32,5,11.52,TM,1632044740
431,Sabang,5.8933,95.3214,80.11,81,97,19.24,ID,1632044307
432,Mormugao,15.4,73.8,85.26,70,40,10.36,IN,1632044740
433,Flinders,-34.5833,150.8552,64.2,60,0,5.84,AU,1632044741
434,Lagoa,39.05,-27.9833,66.78,64,15,12.15,PT,1632044741
435,Sechura,-5.5569,-80.8222,62.08,82,17,8.08,PE,1632044264
436,Pangkalanbuun,-2.6833,111.6167,83.48,64,14,7.47,ID,1632044742
437,Saint Anthony,45.0205,-93.218,71.15,81,1,5.01,US,1632044742
438,Chapais,49.7834,-74.8492,42.58,83,100,0.87,CA,1632044742
439,Maricá,-22.9194,-42.8186,69.75,94,32,0.96,BR,1632044468
440,Dunedin,-45.8742,170.5036,50.81,78,100,8.99,NZ,1632044743
441,Umm Kaddadah,13.6017,26.6876,87.28,39,36,5.66,SD,1632044743
442,Pevek,69.7008,170.3133,30.99,70,100,15.26,RU,1632044744
443,Oiã,40.5426,-8.5386,71.38,64,31,3.0,PT,1632044744
444,Oktyabr'skoye,43.0645,44.7417,64.54,72,75,4.47,RU,1632044745
445,Velyka Bahachka,49.7912,33.7226,68.45,52,16,8.5,UA,1632044745
446,Rampur Hat,24.1667,87.7833,89.22,66,38,4.76,IN,1632044745
447,Juegang,32.3174,121.1855,74.86,88,13,15.55,CN,1632044746
448,Sistranda,63.7256,8.834,57.9,71,91,10.83,NO,1632044746
449,Zatoka,46.0725,30.4654,72.14,59,68,12.26,UA,1632044747
450,Porto-Novo,6.4965,2.6036,80.42,68,100,6.71,BJ,1632044747
451,Lloydminster,53.2835,-110.0016,48.42,81,90,3.44,CA,1632044657
452,Erzin,36.9559,36.2,88.32,41,0,6.33,TR,1632044329
453,Toora-Khem,52.4675,96.11,71.51,32,18,4.52,RU,1632044748
454,Salalah,17.0151,54.0924,86.09,74,20,12.66,OM,1632044748
455,Haines Junction,60.7522,-137.5108,37.35,93,100,1.14,CA,1632044245
456,Lishan,31.8576,113.2951,65.64,91,100,6.29,CN,1632044749
457,Tateyama,34.9833,139.8667,73.42,69,25,17.49,JP,1632044749
458,Ponta Delgada,37.7333,-25.6667,70.52,60,20,6.91,PT,1632044749
459,Gamboma,-1.8764,15.8644,87.85,54,96,2.15,CG,1632044750
460,Malpe,13.35,74.7167,87.1,76,100,9.84,IN,1632044750
461,Contamana,-7.3333,-75.0167,71.37,81,6,1.63,PE,1632044285
462,San Vicente,-26.6167,-54.1333,68.29,81,49,2.44,AR,1632044751
463,Mildura,-34.2,142.15,66.16,30,11,8.05,AU,1632044342
464,Solok,-0.7918,100.6593,79.75,90,100,3.36,ID,1632044751
465,Whitehorse,60.7161,-135.0538,39.97,87,90,3.44,CA,1632044752
466,Yenagoa,4.9247,6.2642,84.34,70,78,4.18,NG,1632044752
467,Włoszczowa,50.8526,19.9659,50.18,75,98,11.14,PL,1632044746
468,Sirte,31.2089,16.5887,92.21,34,0,4.7,LY,1632044752
469,Necochea,-38.5473,-58.7368,49.03,95,5,8.23,AR,1632044753
470,George Town,5.4112,100.3354,85.95,69,20,8.05,MY,1632044565
471,Uvinza,-5.1036,30.3911,85.75,28,100,6.15,TZ,1632044753
472,Nauta,-4.5061,-73.5757,71.65,93,89,2.46,PE,1632044753
473,Buala,-8.145,159.5921,80.49,84,99,10.16,SB,1632044349
474,Batman,37.8874,41.1322,88.14,22,0,4.61,TR,1632044754
475,Arlit,18.7369,7.3853,100.58,11,12,5.68,NE,1632044754
476,Calama,-22.4667,-68.9333,50.97,23,85,5.35,CL,1632044755
477,Tautira,-17.7333,-149.15,77.02,77,52,20.24,PF,1632044755
478,Maracaju,-21.6144,-55.1683,80.74,39,90,5.3,BR,1632044756
479,Inírida,3.8653,-67.9239,71.13,99,72,0.34,CO,1632044756
480,Guerrero Negro,27.9769,-114.0611,67.82,85,2,15.35,MX,1632044542
481,Bilma,18.6853,12.9164,97.09,11,14,6.02,NE,1632044756
482,Wanning,18.8003,110.3967,85.3,74,68,6.29,CN,1632044559
483,Waingapu,-9.6567,120.2641,81.52,68,2,13.69,ID,1632044757
484,Constantine,36.365,6.6147,80.01,57,0,2.3,DZ,1632044757
485,Isangel,-19.55,169.2667,68.11,77,7,4.61,VU,1632044397
486,Xapuri,-10.6517,-68.5044,74.28,72,13,2.64,BR,1632044758
487,Wasilla,61.5814,-149.4394,47.75,91,1,3.44,US,1632044290
488,Benguela,-12.5763,13.4055,74.95,76,91,11.14,AO,1632044758
489,Alofi,-19.0595,-169.9187,75.09,94,17,4.61,NU,1632044313
490,Kurchum,48.5722,83.6542,70.61,23,100,4.05,KZ,1632044759
491,Neiafu,-18.65,-173.9833,77.79,75,0,6.22,TO,1632044759
492,Oudtshoorn,-33.5907,22.2014,64.76,20,93,6.26,ZA,1632044759
493,Pathein,16.7833,94.7333,83.98,77,100,9.73,MM,1632044760
494,Nelson Bay,-32.7167,152.15,62.1,71,0,1.01,AU,1632044760
495,Tual,-5.6667,132.75,80.31,81,100,13.38,ID,1632044760
496,Henties Bay,-22.116,14.2845,61.86,72,0,11.56,NA,1632044761
497,Tilichiki,60.4667,166.1,43.68,79,83,0.6,RU,1632044761
498,Arrondissement de Bressuire,46.9167,-0.5,63.3,76,100,10.63,FR,1632044762
499,Yangambi,0.8102,24.4336,84.34,52,97,3.98,CD,1632044762
500,Richards Bay,-28.783,32.0377,75.02,48,0,16.26,ZA,1632044206
501,Laguna,38.421,-121.4238,67.64,78,90,1.99,US,1632044575
502,Yichang,30.7144,111.2847,70.97,96,100,2.33,CN,1632044763
503,Rockhampton,-23.3833,150.5,69.69,60,3,8.05,AU,1632044763
504,Grand-Lahou,5.1367,-5.0242,80.67,74,84,3.87,CI,1632044764
505,Umba,66.6871,34.3429,46.69,62,72,4.27,RU,1632044764
506,Jacareacanga,-6.2222,-57.7528,71.85,91,61,0.74,BR,1632044764
507,Quatre Cocos,-20.2078,57.7625,76.08,57,93,16.42,MU,1632044280
508,Spasskoye,44.6108,132.7969,50.67,80,97,14.18,RU,1632044765
509,Jérémie,18.65,-74.1167,79.92,79,14,2.77,HT,1632044765
510,Inuvik,68.3499,-133.7218,43.66,100,90,3.44,CA,1632044766
511,Morón,-34.6534,-58.6198,59.02,98,35,5.99,AR,1632044478
512,Cayon,17.35,-62.7333,81.34,73,27,10.74,KN,1632044766
513,Departamento de Maldonado,-34.6667,-54.9167,56.59,95,69,10.0,UY,1632044516
514,Bend,44.0582,-121.3153,49.28,70,40,1.01,US,1632044569
515,Storslett,69.7678,21.0247,50.85,65,100,8.75,NO,1632044767
516,Tarauacá,-8.1614,-70.7656,71.58,88,13,2.84,BR,1632044767
517,Plyussa,58.4308,29.3654,48.11,57,82,13.18,RU,1632044768
518,Lishu,43.3047,124.3278,67.93,65,100,0.34,CN,1632044768
519,Coyhaique,-45.5752,-72.0662,39.25,91,84,5.19,CL,1632044768
520,Grindavik,63.8424,-22.4338,48.67,81,20,9.22,IS,1632044769
521,Villa Rica,33.7321,-84.9191,72.79,97,100,4.47,US,1632044769
522,Ucluelet,48.9329,-125.5528,53.1,94,93,7.54,CA,1632044531
523,Tessalit,20.1986,1.0114,102.22,8,4,9.78,ML,1632044769
524,Mabaruma,8.2,-59.7833,70.72,99,29,2.64,GY,1632044770
525,Coquimbo,-29.9533,-71.3436,53.33,87,90,1.14,CL,1632044770
526,Batagay-Alyta,67.8006,130.4114,29.62,84,100,9.64,RU,1632044771
527,Dehlorān,32.6941,47.2679,102.69,9,0,11.65,IR,1632044771
528,Shenjiamen,29.9576,122.298,76.39,85,0,16.49,CN,1632044771
529,Auki,-8.7676,160.7034,77.65,88,82,5.99,SB,1632044772
530,Fort Morgan,40.2503,-103.8,69.8,39,1,5.75,US,1632044772
531,Vilhena,-12.7406,-60.1458,69.6,67,22,2.93,BR,1632044349
532,Alice Springs,-23.7,133.8833,78.35,27,56,8.05,AU,1632044401
533,Karpogory,64.0019,44.4451,43.81,61,100,6.53,RU,1632044773
534,Morant Bay,17.8815,-76.4093,83.82,84,44,6.67,JM,1632044773
535,Huangmei,30.1924,116.025,78.64,95,43,4.7,CN,1632044773
536,Talaya,61.3833,152.75,41.67,95,100,4.65,RU,1632044774
537,Katsuura,35.1333,140.3,75.31,67,65,22.01,JP,1632044041
538,Basqal,40.7552,48.391,70.32,38,3,10.58,AZ,1632044774
539,Chuzhou,32.3219,118.2978,82.83,76,51,7.4,CN,1632044774
540,Conceição do Araguaia,-8.2578,-49.2647,77.68,49,0,3.4,BR,1632044775
541,Atasū,48.6814,71.6433,56.68,23,0,15.97,KZ,1632044775
542,Rome,34.257,-85.1647,73.36,93,90,3.44,US,1632044776
543,Garh Maharaja,30.8339,71.9053,107.4,21,23,3.74,PK,1632044776
544,Iguatemi,-23.6803,-54.5611,74.34,51,57,4.68,BR,1632044776
545,Loma Alta,15.3967,-88.5597,75.34,99,71,1.39,HN,1632044777
546,Itarema,-2.9248,-39.9167,78.58,67,27,15.39,BR,1632044777
547,Singaraja,-8.112,115.0882,81.19,74,25,1.9,ID,1632044777
548,Kalabo,-14.97,22.6814,94.37,18,8,8.79,ZM,1632044778
549,Udachny,66.4167,112.4,35.04,62,69,4.88,RU,1632044778
550,Patāmundai,20.5667,86.5667,85.84,68,100,1.52,IN,1632044779
551,Collie,-33.3667,116.15,58.98,77,75,7.23,AU,1632044779
552,Terrace Bay,48.7834,-87.1,56.82,86,1,14.56,CA,1632044779
553,Hamilton,39.1834,-84.5333,69.89,95,20,3.44,US,1632044030
554,Scarborough,54.2797,-0.4044,66.52,84,100,1.01,GB,1632044780
555,Alugan,12.2188,125.4808,81.77,77,100,3.04,PH,1632044358
