,City,Latitude,Longitude,Max Temperature,Humidity,Cloudiness,Wind Speed,Country,Date
0,East London,-33.0153,27.9116,62.73,62,78,14.36,ZA,2021-09-24 02:46:14
1,Oktyabr'skiy,54.4815,53.471,50.41,66,100,16.06,RU,2021-09-24 02:46:15
2,Viedma,-40.8135,-62.9967,51.39,81,57,8.12,AR,2021-09-24 02:46:15
3,Port Hedland,-20.3167,118.5667,91.45,8,1,4.61,AU,2021-09-24 02:46:16
4,Bredasdorp,-34.5322,20.0403,49.32,87,16,4.61,ZA,2021-09-24 02:46:16
5,Hasaki,35.7333,140.8333,81.0,58,28,10.71,JP,2021-09-24 02:46:17
6,Busselton,-33.65,115.3333,60.04,50,0,11.16,AU,2021-09-24 02:46:17
7,Puerto Suárez,-18.95,-57.8,85.35,39,93,7.38,BO,2021-09-24 02:46:17
8,Mirny,62.5353,113.9611,44.76,64,100,2.24,RU,2021-09-24 02:46:18
9,Burns Lake,54.2331,-125.7533,45.82,81,100,4.12,CA,2021-09-24 02:46:18
10,Kapaa,22.0752,-159.319,82.72,71,40,3.0,US,2021-09-24 02:46:19
11,Srednekolymsk,67.45,153.6833,41.72,60,98,1.05,RU,2021-09-24 02:46:19
12,Imbituba,-28.24,-48.6703,64.29,84,100,12.21,BR,2021-09-24 02:46:20
13,Port Alfred,-33.5906,26.891,60.22,84,100,12.41,ZA,2021-09-24 02:46:20
14,New Norfolk,-42.7826,147.0587,48.76,76,70,5.01,AU,2021-09-24 02:46:21
15,Port Elizabeth,-33.918,25.5701,59.29,77,0,11.5,ZA,2021-09-24 02:46:21
16,Grindavik,63.8424,-22.4338,41.47,87,75,8.05,IS,2021-09-24 02:46:21
17,Rikitea,-23.1203,-134.9692,74.03,78,100,23.31,PF,2021-09-24 02:46:22
18,Ribeira Grande,38.5167,-28.7,70.18,64,74,9.8,PT,2021-09-24 02:46:22
19,Ushuaia,-54.8,-68.3,44.26,61,40,17.27,AR,2021-09-24 02:46:23
20,Puerto Ayora,-0.7393,-90.3518,68.92,87,63,7.72,EC,2021-09-24 02:46:23
21,Upernavik,72.7868,-56.1549,28.04,92,100,12.53,GL,2021-09-24 02:46:23
22,Punta Arenas,-53.15,-70.9167,42.91,75,75,2.3,CL,2021-09-24 02:42:43
23,Albany,42.6001,-73.9662,74.08,93,100,12.08,US,2021-09-24 02:44:43
24,Carnarvon,-24.8667,113.6333,73.47,60,0,19.57,AU,2021-09-24 02:46:24
25,Mossamedes,-15.1961,12.1522,65.59,94,31,5.37,AO,2021-09-24 02:46:25
26,Makarov,48.6333,142.8,55.74,69,58,4.36,RU,2021-09-24 02:46:25
27,Geraldton,-28.7667,114.6,75.61,41,0,13.8,AU,2021-09-24 02:46:26
28,Balkanabat,39.5108,54.3671,76.44,33,0,5.08,TM,2021-09-24 02:46:26
29,Nouadhibou,20.931,-17.0347,67.98,94,0,13.8,MR,2021-09-24 02:46:27
30,Saint-Pierre,-21.3393,55.4781,69.44,63,0,6.91,RE,2021-09-24 02:46:27
31,Vaini,-21.2,-175.2,78.96,89,75,10.36,TO,2021-09-24 02:46:27
32,Lorengau,-2.0226,147.2712,84.9,67,100,10.58,PG,2021-09-24 02:46:28
33,Sotik Post,-0.7813,35.3416,51.24,96,100,3.42,KE,2021-09-24 02:46:28
34,Katsuura,35.1333,140.3,80.71,64,59,13.02,JP,2021-09-24 02:46:29
35,Pecos,31.4229,-103.4932,78.3,25,1,10.36,US,2021-09-24 02:46:29
36,Okato,-39.2,173.8833,60.42,75,6,15.12,NZ,2021-09-24 02:46:29
37,Tadine,-21.55,167.8833,72.09,56,74,14.74,NC,2021-09-24 02:46:30
38,Chunian,30.964,73.9803,81.16,68,1,8.46,PK,2021-09-24 02:46:30
39,Atuona,-9.8,-139.0333,78.24,72,23,17.0,PF,2021-09-24 02:46:31
40,Khasan,42.4308,130.6434,64.58,63,11,6.67,RU,2021-09-24 02:46:31
41,Mataura,-46.1927,168.8643,51.48,57,93,9.24,NZ,2021-09-24 02:46:31
42,Hermanus,-34.4187,19.2345,56.89,88,21,8.16,ZA,2021-09-24 02:46:32
43,Jamestown,42.097,-79.2353,54.07,83,90,5.01,US,2021-09-24 02:46:32
44,San Patricio,28.017,-97.5169,77.85,51,0,10.18,US,2021-09-24 02:46:33
45,Castro,-24.7911,-50.0119,49.17,96,26,4.92,BR,2021-09-24 02:46:33
46,Bathsheba,13.2167,-59.5167,83.01,78,40,10.36,BB,2021-09-24 02:46:34
47,Bambous Virieux,-20.3428,57.7575,72.21,83,75,9.22,MU,2021-09-24 02:46:34
48,Port Macquarie,-31.4333,152.9167,78.76,43,0,8.57,AU,2021-09-24 02:45:14
49,Saint-Philippe,-21.3585,55.7679,69.35,81,37,10.56,RE,2021-09-24 02:46:35
50,Butaritari,3.0707,172.7902,82.36,77,10,15.32,KI,2021-09-24 02:46:35
51,Dikson,73.5069,80.5464,34.23,74,24,9.04,RU,2021-09-24 02:46:36
52,Bengkulu,-3.8004,102.2655,84.07,66,79,3.09,ID,2021-09-24 02:46:36
53,Airai,-8.9266,125.4092,79.5,30,52,3.13,TL,2021-09-24 02:46:36
54,Turaif,31.6725,38.6637,62.85,88,0,9.22,SA,2021-09-24 02:46:37
55,Pisco,-13.7,-76.2167,61.02,82,0,5.75,PE,2021-09-24 02:45:08
56,Severo-Kuril'sk,50.6789,156.125,48.6,91,100,25.08,RU,2021-09-24 02:46:38
57,Cape Town,-33.9258,18.4232,57.88,92,75,1.01,ZA,2021-09-24 02:42:04
58,Bluff,-46.6,168.3333,51.8,71,97,22.53,NZ,2021-09-24 02:46:38
59,Hong Kong,22.2855,114.1577,87.96,82,34,1.99,HK,2021-09-24 02:45:57
60,Richards Bay,-28.783,32.0377,63.68,80,21,16.06,ZA,2021-09-24 02:46:39
61,Marfino,55.7028,37.3822,45.68,93,0,4.47,RU,2021-09-24 02:46:39
62,Paraíso,9.8383,-83.8656,63.95,97,99,2.1,CR,2021-09-24 02:46:40
63,Inuvik,68.3499,-133.7218,34.81,74,75,5.75,CA,2021-09-24 02:46:40
64,Bambanglipuro,-7.95,110.2833,83.39,69,78,6.04,ID,2021-09-24 02:46:40
65,Atambua,-9.1061,124.8925,85.73,41,81,4.52,ID,2021-09-24 02:46:41
66,Yulara,-25.2406,130.9889,78.64,9,34,3.44,AU,2021-09-24 02:46:41
67,Mayo,38.8876,-76.5119,66.31,75,90,3.0,US,2021-09-24 02:46:42
68,Qaqortoq,60.7167,-46.0333,32.5,70,0,5.12,GL,2021-09-24 02:46:42
69,Qaanaaq,77.484,-69.3632,16.29,63,100,5.57,GL,2021-09-24 02:46:42
70,Saskylakh,71.9167,114.0833,33.8,97,100,9.84,RU,2021-09-24 02:46:43
71,Kaeo,-35.1,173.7833,65.32,64,26,10.92,NZ,2021-09-24 02:46:43
72,Hilo,19.7297,-155.09,78.8,80,27,3.0,US,2021-09-24 02:46:44
73,Adrar,20.5022,-10.0711,88.25,15,44,8.95,MR,2021-09-24 02:46:44
74,Lebu,-37.6167,-73.65,50.05,87,0,11.56,CL,2021-09-24 02:46:12
75,Mendi,-6.1761,143.6513,63.59,89,95,2.91,PG,2021-09-24 02:46:45
76,Lieksa,63.3167,30.0167,46.8,90,98,12.91,FI,2021-09-24 02:46:45
77,São João da Barra,-21.6403,-41.0511,67.12,63,38,7.09,BR,2021-09-24 02:44:59
78,North Bend,43.4065,-124.2243,60.17,82,1,12.66,US,2021-09-24 02:46:09
79,Salalah,17.0151,54.0924,82.49,83,75,3.44,OM,2021-09-24 02:44:07
80,High Level,58.5169,-117.136,42.91,70,40,0.0,CA,2021-09-24 02:45:01
81,Yurginskoye,56.8189,67.3921,38.91,77,93,8.23,RU,2021-09-24 02:46:46
82,Nosy Varika,-20.5833,48.5333,64.67,88,3,3.96,MG,2021-09-24 02:46:47
83,Kamina,-8.7386,24.9906,62.74,68,100,5.37,CD,2021-09-24 02:46:47
84,Portland,45.5234,-122.6762,69.84,69,20,1.01,US,2021-09-24 02:42:00
85,Rehoboth,-23.3167,17.0833,60.39,12,2,3.24,NA,2021-09-24 02:46:48
86,Carutapera,-1.195,-46.02,79.45,77,44,9.26,BR,2021-09-24 02:46:48
87,Mokhotlong,-29.2894,29.0675,49.59,55,12,1.34,LS,2021-09-24 02:46:49
88,Arraial do Cabo,-22.9661,-42.0278,67.53,66,9,16.69,BR,2021-09-24 02:46:49
89,Riyadh,24.6877,46.7219,77.14,21,7,5.55,SA,2021-09-24 02:46:50
90,Natal,-5.795,-35.2094,79.02,83,20,8.05,BR,2021-09-24 02:46:01
91,Longyearbyen,78.2186,15.6401,44.44,81,75,17.27,SJ,2021-09-24 02:46:50
92,Coahuayana Viejo,18.7333,-103.6833,80.08,92,69,1.16,MX,2021-09-24 02:46:51
93,Chirongui,-12.9319,45.1483,75.13,76,0,8.39,YT,2021-09-24 02:46:51
94,Turan,16.0678,108.2208,86.05,62,40,11.5,VN,2021-09-24 02:46:52
95,George Town,5.4112,100.3354,87.73,77,20,3.44,MY,2021-09-24 02:45:10
96,Kez,57.8979,53.7152,43.3,76,100,7.18,RU,2021-09-24 02:46:52
97,Giohar,2.7809,45.5005,74.64,86,55,11.23,SO,2021-09-24 02:46:53
98,Beni,0.5,29.4667,59.81,99,99,0.87,CD,2021-09-24 02:46:53
99,Yerbogachën,61.2767,108.0108,39.51,93,100,1.59,RU,2021-09-24 02:46:54
100,Mount Isa,-20.7333,139.5,85.77,12,5,6.91,AU,2021-09-24 02:46:54
101,Leninsk-Kuznetsky,54.6567,86.1737,39.09,89,100,5.35,RU,2021-09-24 02:46:54
102,Hervey Bay,-25.2986,152.8535,78.04,62,0,13.65,AU,2021-09-24 02:46:55
103,Saint George,37.1041,-113.5841,88.39,17,1,6.91,US,2021-09-24 02:46:55
104,Cabo San Lucas,22.8909,-109.9124,85.3,82,20,5.01,MX,2021-09-24 02:43:56
105,São Filipe,14.8961,-24.4956,78.49,76,97,7.16,CV,2021-09-24 02:46:56
106,Phalombe,-15.8064,35.6507,61.7,88,39,3.06,MW,2021-09-24 02:46:57
107,Christchurch,-43.5333,172.6333,60.48,62,0,23.02,NZ,2021-09-24 02:46:57
108,Hithadhoo,-0.6,73.0833,79.48,84,100,17.92,MV,2021-09-24 02:46:58
109,Mahébourg,-20.4081,57.7,72.25,83,75,9.22,MU,2021-09-24 02:46:58
110,Tiksi,71.6872,128.8694,38.98,70,45,23.47,RU,2021-09-24 02:46:58
111,Gbarnga,6.9956,-9.4722,70.38,100,88,1.66,LR,2021-09-24 02:46:59
112,Hays,30.0502,-98.0336,74.55,41,81,1.01,US,2021-09-24 02:46:59
113,Chokurdakh,70.6333,147.9167,34.56,94,100,8.66,RU,2021-09-24 02:47:00
114,Sibu,2.3,111.8167,84.51,74,20,5.75,MY,2021-09-24 02:47:00
115,Ponta do Sol,32.6667,-17.1,70.43,52,28,2.91,PT,2021-09-24 02:47:00
116,Sur,22.5667,59.5289,85.55,65,9,5.55,OM,2021-09-24 02:47:01
117,Naryan-Mar,67.6713,53.087,36.61,90,84,8.01,RU,2021-09-24 02:47:02
118,Sioux Lookout,50.1001,-91.917,61.18,71,75,4.61,CA,2021-09-24 02:42:49
119,Gīdolē,5.65,37.3667,57.54,71,100,3.87,ET,2021-09-24 02:47:02
120,Turukhansk,65.8167,87.9833,33.6,87,12,12.53,RU,2021-09-24 02:47:03
121,Puerto Carreño,6.189,-67.4859,75.43,92,100,4.74,CO,2021-09-24 02:47:03
122,Chūru,28.3,74.95,81.36,74,97,6.85,IN,2021-09-24 02:47:04
123,Muros,42.7762,-9.0603,64.99,78,100,9.06,ES,2021-09-24 02:47:04
124,Touros,-5.1989,-35.4608,77.9,78,45,15.32,BR,2021-09-24 02:47:04
125,Port Lincoln,-34.7333,135.8667,57.96,55,72,16.49,AU,2021-09-24 02:47:05
126,Iquique,-20.2208,-70.1431,59.04,80,51,1.9,CL,2021-09-24 02:46:06
127,Nemuro,43.3236,145.575,61.23,76,96,19.66,JP,2021-09-24 02:47:06
128,Tasiilaq,65.6145,-37.6368,35.76,63,92,5.28,GL,2021-09-24 02:47:06
129,Yellowknife,62.456,-114.3525,45.12,76,90,4.61,CA,2021-09-24 02:46:36
130,Kulhudhuffushi,6.6221,73.07,82.13,77,86,13.09,MV,2021-09-24 02:47:07
131,Nazarovo,56.0064,90.3914,37.44,85,93,6.42,RU,2021-09-24 02:47:07
132,Humaitá,-7.5061,-63.0208,76.19,85,35,3.67,BR,2021-09-24 02:47:07
133,Nanortalik,60.1432,-45.2371,35.22,73,25,16.91,GL,2021-09-24 02:47:08
134,Coyhaique,-45.5752,-72.0662,49.95,76,90,5.75,CL,2021-09-24 02:47:08
135,Grand Gaube,-20.0064,57.6608,72.37,80,19,8.99,MU,2021-09-24 02:47:09
136,Ballina,-28.8667,153.5667,82.58,22,0,14.97,AU,2021-09-24 02:47:09
137,Havøysund,70.9963,24.6622,45.48,76,67,21.85,NO,2021-09-24 02:47:10
138,Aykhal,66.0,111.5,38.39,85,100,6.78,RU,2021-09-24 02:47:10
139,Ust'-Kulom,61.6864,53.6902,35.94,97,5,4.45,RU,2021-09-24 02:47:10
140,Saint-Augustin,51.226,-58.6502,45.1,87,63,5.35,CA,2021-09-24 02:43:10
141,Pangkalanbuun,-2.6833,111.6167,88.93,60,83,2.04,ID,2021-09-24 02:47:11
142,Eureka,40.8021,-124.1637,71.74,80,75,1.01,US,2021-09-24 02:47:11
143,Fortuna,40.5982,-124.1573,74.19,81,1,6.91,US,2021-09-24 02:47:12
144,Makoshyne,51.46,32.3396,44.29,92,100,17.38,UA,2021-09-24 02:47:12
145,Endicott,42.0984,-76.0494,60.28,89,20,3.0,US,2021-09-24 02:45:14
146,Soyo,-6.1349,12.3689,74.46,86,64,7.61,AO,2021-09-24 02:47:13
147,Karratha,-20.7377,116.8463,86.77,26,1,6.15,AU,2021-09-24 02:47:13
148,Hobyo,5.3505,48.5268,77.54,83,10,17.34,SO,2021-09-24 02:47:14
149,Mahon,39.8885,4.2658,73.96,88,75,13.8,ES,2021-09-24 02:47:14
150,Tommot,58.9564,126.2925,44.31,92,100,9.6,RU,2021-09-24 02:47:14
151,Boa Vista,2.8197,-60.6733,82.38,74,20,4.61,BR,2021-09-24 02:47:15
152,Bandar-e Anzali,37.4727,49.4622,64.51,89,2,3.6,IR,2021-09-24 02:47:15
153,Samut Prakan,13.5,100.45,84.22,82,100,10.8,TH,2021-09-24 02:47:16
154,Kirakira,-10.4544,161.9205,83.61,73,59,9.06,SB,2021-09-24 02:47:16
155,Cidreira,-30.1811,-50.2056,61.23,94,100,11.95,BR,2021-09-24 02:47:16
156,Kavieng,-2.5744,150.7967,84.88,67,100,10.42,PG,2021-09-24 02:47:17
157,Mar del Plata,-38.0023,-57.5575,50.02,93,0,3.44,AR,2021-09-24 02:47:17
158,Sisimiut,66.9395,-53.6735,29.34,92,100,2.73,GL,2021-09-24 02:47:18
159,Cananéia,-25.0147,-47.9267,61.57,83,44,4.12,BR,2021-09-24 02:47:18
160,Thompson,55.7435,-97.8558,48.36,93,90,11.5,CA,2021-09-24 02:45:07
161,Hobart,-42.8794,147.3294,49.12,81,75,4.0,AU,2021-09-24 02:43:07
162,Ambon City,-3.6954,128.1814,78.94,94,40,4.61,ID,2021-09-24 02:47:19
163,Dzhebariki-Khaya,62.2167,135.8,54.23,41,17,1.03,RU,2021-09-24 02:47:19
164,Avarua,-21.2078,-159.775,75.25,57,40,5.75,CK,2021-09-24 02:47:20
165,Los Llanos de Aridane,28.6585,-17.9182,69.55,82,75,5.75,ES,2021-09-24 02:47:20
166,Cumana,10.4635,-64.1775,79.68,82,19,4.94,VE,2021-09-24 02:47:20
167,Ketchikan,55.3422,-131.6461,54.07,94,90,16.11,US,2021-09-24 02:47:21
168,Chapais,49.7834,-74.8492,49.78,99,100,10.49,CA,2021-09-24 02:47:21
169,Coos Bay,43.3665,-124.2179,66.31,82,1,12.66,US,2021-09-24 02:44:48
170,Manggar,-2.8833,108.2667,81.9,73,99,6.44,ID,2021-09-24 02:47:22
171,Yuanli,24.4397,120.6535,89.82,66,75,3.44,TW,2021-09-24 02:47:22
172,Pacific Grove,36.6177,-121.9166,68.4,89,75,1.01,US,2021-09-24 02:47:23
173,East Moline,41.5009,-90.4443,58.01,68,1,0.0,US,2021-09-24 02:47:23
174,Miramar,25.9873,-80.2323,81.05,94,1,4.61,US,2021-09-24 02:47:24
175,Egvekinot,66.3167,-179.1667,26.02,80,100,10.63,RU,2021-09-24 02:47:24
176,Kaitangata,-46.2817,169.8464,57.34,49,31,10.18,NZ,2021-09-24 02:47:25
177,Sørland,67.667,12.6934,48.63,68,79,18.16,NO,2021-09-24 02:47:25
178,Taoudenni,22.6783,-3.9836,91.62,9,0,4.03,ML,2021-09-24 02:47:26
179,Brae,60.3964,-1.353,55.31,93,100,26.82,GB,2021-09-24 02:47:26
180,Mombetsu,44.3525,143.3525,59.02,67,40,9.22,JP,2021-09-24 02:47:27
181,Coquimbo,-29.9533,-71.3436,55.13,87,0,1.14,CL,2021-09-24 02:46:36
182,Marawi,7.9986,124.2928,75.65,65,100,5.32,PH,2021-09-24 02:47:27
183,Torbay,47.6666,-52.7314,56.75,90,90,12.66,CA,2021-09-24 02:42:44
184,Pāsighāt,28.0667,95.3333,84.11,68,100,0.54,IN,2021-09-24 02:47:28
185,Sakakah,29.9697,40.2064,72.97,48,0,7.31,SA,2021-09-24 02:47:28
186,Myitkyina,25.3833,97.4,87.58,54,5,0.51,MM,2021-09-24 02:47:29
187,Hailar,49.2,119.7,57.7,51,86,4.65,CN,2021-09-24 02:47:29
188,Iqaluit,63.7506,-68.5145,31.73,86,90,12.66,CA,2021-09-24 02:47:29
189,Kruisfontein,-34.0033,24.7314,52.88,85,99,6.31,ZA,2021-09-24 02:47:30
190,Pong,19.1493,100.2752,81.39,73,66,2.82,TH,2021-09-24 02:47:30
191,Abu Samrah,35.3029,37.1841,66.22,73,6,17.18,SY,2021-09-24 02:47:31
192,Vitré,48.1178,-1.2058,49.82,94,2,3.91,FR,2021-09-24 02:47:31
193,Khatanga,71.9667,102.5,34.99,86,96,4.16,RU,2021-09-24 02:47:32
194,Sinjār,36.3209,41.8754,70.45,50,0,4.9,IQ,2021-09-24 02:47:32
195,Narsaq,60.9167,-46.05,32.22,59,0,4.81,GL,2021-09-24 02:47:32
196,Nome,64.5011,-165.4064,38.16,53,1,8.05,US,2021-09-24 02:47:33
197,Charlestown,-32.95,151.6667,82.94,36,1,4.0,AU,2021-09-24 02:47:34
198,Hebi,35.8992,114.1925,66.61,93,100,8.9,CN,2021-09-24 02:47:34
199,Pevek,69.7008,170.3133,28.85,84,98,13.09,RU,2021-09-24 02:47:34
200,Angren,41.0167,70.1436,69.22,17,0,2.13,UZ,2021-09-24 02:47:35
201,Bethel,41.3712,-73.414,75.56,92,90,1.99,US,2021-09-24 02:44:49
202,Padang,-0.9492,100.3543,84.83,70,39,3.0,ID,2021-09-24 02:42:47
203,Likasi,-10.9814,26.7333,61.86,48,43,3.13,CD,2021-09-24 02:47:36
204,Hereford,52.0568,-2.7148,56.1,70,5,3.22,GB,2021-09-24 02:47:36
205,Vila Velha,-20.3297,-40.2925,66.15,77,40,5.75,BR,2021-09-24 02:47:36
206,Yeppoon,-23.1333,150.7333,82.18,51,0,9.4,AU,2021-09-24 02:47:37
207,Port-Cartier,50.0334,-66.8654,52.02,95,100,6.08,CA,2021-09-24 02:47:37
208,Vao,-22.6667,167.4833,68.16,62,78,14.7,NC,2021-09-24 02:47:38
209,Zhigansk,66.7697,123.3711,42.78,71,100,12.12,RU,2021-09-24 02:47:38
210,Solnechnyy,50.7214,136.6319,61.21,39,0,3.04,RU,2021-09-24 02:47:38
211,Belaya Gora,68.5333,146.4167,44.11,52,89,13.44,RU,2021-09-24 02:47:39
212,Mareeba,-17.0,145.4333,79.48,56,99,8.81,AU,2021-09-24 02:47:39
213,Shenjiamen,29.9576,122.298,79.38,67,31,9.06,CN,2021-09-24 02:47:40
214,Saldanha,-33.0117,17.9442,50.05,93,53,2.55,ZA,2021-09-24 02:47:40
215,Leningradskiy,69.3833,178.4167,28.38,91,100,13.09,RU,2021-09-24 02:47:41
216,Iskateley,67.6803,53.1512,36.5,90,86,8.05,RU,2021-09-24 02:47:41
217,Managua,12.1328,-86.2504,80.04,83,40,4.61,NI,2021-09-24 02:42:56
218,Tilichiki,60.4667,166.1,47.43,50,100,14.67,RU,2021-09-24 02:47:42
219,Vetluzhskiy,58.3902,45.4654,47.19,95,100,9.75,RU,2021-09-24 02:47:42
220,Barrow,71.2906,-156.7887,28.42,86,90,4.61,US,2021-09-24 02:47:43
221,Ambovombe,-25.1667,46.0833,64.81,87,0,1.72,MG,2021-09-24 02:47:43
222,Rognan,67.0953,15.3878,45.75,91,100,3.76,NO,2021-09-24 02:47:43
223,Calvinia,-31.4707,19.776,50.56,39,65,4.14,ZA,2021-09-24 02:47:44
224,Chipata,-13.6333,32.65,59.54,81,6,4.47,ZM,2021-09-24 02:47:44
225,Beliātor,23.3333,87.2167,83.14,79,22,5.59,IN,2021-09-24 02:47:45
226,La Santisima Trinidad,-14.8333,-64.9,87.03,38,91,7.18,BO,2021-09-24 02:47:45
227,Antofagasta,-23.65,-70.4,56.48,83,51,1.43,CL,2021-09-24 02:47:45
228,Boguchany,58.3814,97.4531,37.74,80,99,1.66,RU,2021-09-24 02:47:46
229,Bouar,5.934,15.596,64.92,94,100,1.81,CF,2021-09-24 02:47:46
230,Agüimes,27.9054,-15.4461,68.63,70,20,8.05,ES,2021-09-24 02:47:47
231,Karpathos,35.507,27.2132,67.96,56,0,19.57,GR,2021-09-24 02:47:47
232,Pleshanovo,52.8333,53.4833,53.92,47,100,20.22,RU,2021-09-24 02:47:48
233,Nikolskoye,59.7035,30.7861,46.02,83,94,12.41,RU,2021-09-24 02:47:48
234,Codrington,-38.2667,141.9667,54.86,69,54,25.84,AU,2021-09-24 02:47:48
235,Panzhihua,26.5851,101.7128,78.78,66,5,1.28,CN,2021-09-24 02:47:49
236,Caravelas,-17.7125,-39.2481,71.02,60,73,8.68,BR,2021-09-24 02:47:49
237,Kasongo,-4.45,26.6667,68.0,95,100,3.33,CD,2021-09-24 02:47:50
238,Paris,48.8534,2.3488,58.21,95,90,1.01,FR,2021-09-24 02:45:21
239,Matara,5.9485,80.5353,82.69,76,89,11.7,LK,2021-09-24 02:47:51
240,Saint Paul Harbor,57.79,-152.4072,47.71,61,75,16.11,US,2021-09-24 02:47:51
241,Tuktoyaktuk,69.4541,-133.0374,32.0,86,75,4.61,CA,2021-09-24 02:47:51
242,Bahía Blanca,-38.7196,-62.2724,55.47,70,4,8.08,AR,2021-09-24 02:45:01
243,Dingle,10.9995,122.6711,86.9,71,84,7.72,PH,2021-09-24 02:47:52
244,Magadan,59.5667,150.8,51.66,64,5,2.73,RU,2021-09-24 02:47:52
245,Rawson,-43.3002,-65.1023,59.31,45,69,20.6,AR,2021-09-24 02:47:53
246,Lavrentiya,65.5833,-171.0,32.9,70,100,5.14,RU,2021-09-24 02:47:53
247,Cap Malheureux,-19.9842,57.6142,72.46,80,23,8.99,MU,2021-09-24 02:47:54
248,Linxia Chengguanzhen,35.6003,103.2064,58.05,81,100,5.39,CN,2021-09-24 02:47:54
249,Auki,-8.7676,160.7034,84.25,67,100,3.31,SB,2021-09-24 02:47:54
250,San Ignacio Río Muerto,27.4167,-110.2333,87.08,58,96,7.0,MX,2021-09-24 02:46:15
251,Maragogi,-9.0122,-35.2225,76.41,85,60,10.11,BR,2021-09-24 02:47:55
252,Requena,39.4883,-1.1004,65.71,81,100,6.76,ES,2021-09-24 02:47:56
253,Oyem,1.5995,11.5793,66.51,99,100,1.81,GA,2021-09-24 02:47:56
254,Marabu,4.4148,114.0089,87.94,66,40,6.91,MY,2021-09-24 02:47:56
255,Mitsamiouli,-11.3847,43.2844,75.52,78,0,7.72,KM,2021-09-24 02:47:57
256,Tomatlán,19.9333,-105.25,77.31,92,8,3.24,MX,2021-09-24 02:47:57
257,St. George's,12.0564,-61.7485,82.08,83,20,0.0,GD,2021-09-24 02:47:57
258,Virovitica,45.8319,17.3839,51.03,71,92,7.43,HR,2021-09-24 02:47:58
259,Vaida,59.2906,24.9658,44.53,93,90,17.27,EE,2021-09-24 02:47:58
260,Port-Gentil,-0.7193,8.7815,77.05,86,100,7.92,GA,2021-09-24 02:47:59
261,Esperance,-33.8667,121.9,58.84,58,63,10.85,AU,2021-09-24 02:47:59
262,Madoc,44.5084,-77.4745,61.52,93,79,3.83,CA,2021-09-24 02:48:00
263,Sisophon,13.5859,102.9737,76.03,94,100,2.75,KH,2021-09-24 02:48:00
264,Lima,-12.0432,-77.0282,59.9,83,90,5.75,PE,2021-09-24 02:45:03
265,Guerrero Negro,27.9769,-114.0611,74.95,76,67,14.0,MX,2021-09-24 02:46:15
266,Saint Anthony,45.0205,-93.218,62.89,68,1,1.01,US,2021-09-24 02:48:01
267,Laas,46.6166,10.7002,60.26,29,3,5.82,IT,2021-09-24 02:48:01
268,Flinders,-34.5833,150.8552,80.06,36,0,11.01,AU,2021-09-24 02:48:02
269,Liverpool,53.4106,-2.9779,57.58,88,4,1.01,GB,2021-09-24 02:48:02
270,Sitka,57.0531,-135.33,58.89,63,90,9.22,US,2021-09-24 02:48:03
271,Canala,-21.5333,165.95,75.69,52,56,8.57,NC,2021-09-24 02:48:03
272,Shawinigan,46.5668,-72.7491,64.81,88,100,8.05,CA,2021-09-24 02:48:03
273,Cherskiy,68.75,161.3,33.62,64,88,7.49,RU,2021-09-24 02:48:04
274,Tuatapere,-46.1333,167.6833,51.82,68,99,8.39,NZ,2021-09-24 02:48:04
275,Wattegama,6.7989,81.4808,81.52,61,98,4.03,LK,2021-09-24 02:48:05
276,Vanavara,60.34,102.2797,39.25,58,19,0.6,RU,2021-09-24 02:48:05
277,Golāghāt,26.5167,93.9667,82.9,81,20,3.11,IN,2021-09-24 02:48:05
278,Bonfim,3.0833,-59.95,77.49,83,100,1.7,BR,2021-09-24 02:48:06
279,Dunedin,-45.8742,170.5036,58.37,46,25,5.75,NZ,2021-09-24 02:44:14
280,Zaysan,47.4667,84.8667,49.21,35,42,9.08,KZ,2021-09-24 02:48:06
281,Annau,37.8876,58.516,65.7,39,0,2.3,TM,2021-09-24 02:48:07
282,Mayumba,-3.432,10.6554,75.43,86,91,4.38,GA,2021-09-24 02:48:07
283,Batticaloa,7.7102,81.6924,84.18,69,90,5.99,LK,2021-09-24 02:48:08
284,Kirovsk,48.6375,38.6428,44.02,92,29,3.58,UA,2021-09-24 02:48:08
285,Ust-Kuyga,70.0167,135.6,44.8,49,13,11.03,RU,2021-09-24 02:48:08
286,Northport,33.229,-87.5772,58.68,91,0,1.99,US,2021-09-24 02:48:09
287,Atherton,53.5237,-2.4935,58.86,91,42,3.69,GB,2021-09-24 02:48:09
288,Ōmamachō-ōmama,36.4333,139.2833,80.83,41,100,2.44,JP,2021-09-24 02:48:10
289,Skibbereen,51.55,-9.2667,60.6,98,98,11.34,IE,2021-09-24 02:48:10
290,Cayenne,4.9333,-52.3333,82.09,83,32,1.01,GF,2021-09-24 02:48:10
291,Gimli,50.6336,-96.9907,62.62,39,100,5.75,CA,2021-09-24 02:48:11
292,Yatou,37.15,122.3833,74.26,62,81,7.83,CN,2021-09-24 02:48:11
293,Souillac,-20.5167,57.5167,72.36,83,75,9.22,MU,2021-09-24 02:48:12
294,Fort William,56.8165,-5.1121,58.78,96,100,7.96,GB,2021-09-24 02:48:12
295,Carballo,43.213,-8.691,63.91,89,80,7.11,ES,2021-09-24 02:48:13
296,Hamilton,39.1834,-84.5333,56.35,81,1,0.0,US,2021-09-24 02:48:13
297,Preobrazheniye,42.9019,133.9064,60.31,77,99,1.14,RU,2021-09-24 02:48:13
298,Colonia Nueva Germania,-23.9,-56.5667,68.02,56,66,6.51,PY,2021-09-24 02:48:14
299,Koumac,-20.5667,164.2833,74.23,55,88,9.37,NC,2021-09-24 02:48:14
300,Champerico,14.3,-91.9167,84.34,83,100,5.26,GT,2021-09-24 02:48:14
301,Cartagena,10.3997,-75.5144,83.82,84,20,2.3,CO,2021-09-24 02:44:53
302,Te Anau,-45.4167,167.7167,42.78,96,75,6.67,NZ,2021-09-24 02:48:15
303,Brigantine,39.4101,-74.3646,67.01,94,90,6.91,US,2021-09-24 02:48:16
304,Timizart,36.8,4.2667,77.77,52,100,7.74,DZ,2021-09-24 02:48:16
305,Hofn,64.2539,-15.2082,41.83,72,99,17.22,IS,2021-09-24 02:48:16
306,Aklavik,68.2191,-135.0107,34.52,87,100,1.41,CA,2021-09-24 02:48:17
307,Sokoni,-6.4333,39.55,73.69,80,11,11.01,TZ,2021-09-24 02:48:17
308,Naze,28.3667,129.4833,85.12,62,0,12.95,JP,2021-09-24 02:48:18
309,Norman Wells,65.282,-126.8329,37.44,75,75,10.36,CA,2021-09-24 02:48:18
310,Aswān,24.0934,32.907,79.9,29,0,12.66,EG,2021-09-24 02:48:19
311,Fuyu,45.1833,124.8167,63.05,58,41,5.91,CN,2021-09-24 02:48:19
312,Sobolivka,49.336,28.651,45.81,90,100,16.26,UA,2021-09-24 02:48:19
313,Samoded,63.6083,40.5111,44.01,96,100,8.39,RU,2021-09-24 02:48:20
314,Mwinilunga,-11.7358,24.4293,63.99,43,9,6.71,ZM,2021-09-24 02:48:20
315,Avera,33.194,-82.5271,62.71,63,0,5.57,US,2021-09-24 02:48:20
316,Warrnambool,-38.3833,142.4833,56.8,71,66,27.83,AU,2021-09-24 02:48:21
317,Beringovskiy,63.05,179.3167,36.14,78,100,24.02,RU,2021-09-24 02:48:21
318,Doka,13.5167,35.7667,70.79,93,100,5.7,SD,2021-09-24 02:48:22
319,Dubinino,55.6192,89.0911,38.12,81,94,4.9,RU,2021-09-24 02:48:22
320,Dourbali,11.8091,15.8632,75.94,78,99,6.15,TD,2021-09-24 02:48:22
321,Moose Jaw,50.4001,-105.5344,53.96,29,81,10.36,CA,2021-09-24 02:48:23
322,Lázaro Cárdenas,17.9583,-102.2,81.0,87,97,3.36,MX,2021-09-24 02:48:24
323,Taltal,-25.4,-70.4833,59.74,73,14,2.26,CL,2021-09-24 02:48:11
324,Virginia Beach,36.8529,-75.978,69.03,94,100,2.68,US,2021-09-24 02:47:56
325,Terebovlya,49.3019,25.71,53.64,66,100,20.45,UA,2021-09-24 02:48:25
326,Savannah Bight,16.45,-85.85,81.0,72,68,3.85,HN,2021-09-24 02:48:25
327,Bac Lieu,9.285,105.7244,84.94,68,100,10.16,VN,2021-09-24 02:48:25
328,Vila Franca do Campo,37.7167,-25.4333,66.61,78,97,6.49,PT,2021-09-24 02:48:26
329,La Grande,45.3246,-118.0877,64.71,46,81,3.44,US,2021-09-24 02:42:09
330,Darasun,51.6667,114.0,43.34,54,64,4.94,RU,2021-09-24 02:48:26
331,Khandyga,62.6667,135.6,51.96,49,98,1.45,RU,2021-09-24 02:48:27
332,Butte,39.6499,-121.5677,88.02,25,1,5.75,US,2021-09-24 02:48:27
333,Lewistown,40.5992,-77.5714,54.1,95,1,0.0,US,2021-09-24 02:48:28
334,Bohodukhiv,50.1647,35.5276,41.04,86,91,8.41,UA,2021-09-24 02:48:28
335,Ajdabiya,30.7554,20.2263,72.16,66,5,8.99,LY,2021-09-24 02:48:29
336,Berlevåg,70.8578,29.0864,45.09,82,50,17.45,NO,2021-09-24 02:48:30
337,Blackwater,-23.5833,148.8833,80.13,28,2,6.82,AU,2021-09-24 02:48:30
338,Dongsheng,39.8161,109.9776,62.69,69,100,6.6,CN,2021-09-24 02:48:31
339,Energetik,51.7445,58.7934,44.11,49,96,9.51,RU,2021-09-24 02:48:31
340,Shimoda,34.6667,138.95,79.16,63,17,8.75,JP,2021-09-24 02:48:32
341,Mount Gambier,-37.8333,140.7667,55.31,62,90,25.32,AU,2021-09-24 02:48:32
342,Bud,39.447,-86.1758,53.56,81,0,7.49,US,2021-09-24 02:48:33
343,Sulayman,31.4002,46.2851,86.13,19,0,6.96,IQ,2021-09-24 02:48:33
344,Fontem,5.4685,9.8818,64.38,87,89,1.97,CM,2021-09-24 02:48:33
345,Bereda,43.2686,-7.5406,59.92,100,100,5.61,ES,2021-09-24 02:48:34
346,Salekhard,66.53,66.6019,35.47,77,9,2.57,RU,2021-09-24 02:48:34
347,Baiyin,36.5583,104.2081,65.28,78,100,7.67,CN,2021-09-24 02:48:35
348,Bantry,51.6833,-9.45,60.28,99,100,6.31,IE,2021-09-24 02:48:35
349,Padinska Skela,44.9392,20.4303,50.32,91,0,0.0,RS,2021-09-24 02:48:36
350,Weiswampach,50.1372,6.075,55.27,89,84,3.94,LU,2021-09-24 02:48:36
351,Florø,61.5996,5.0328,46.36,93,75,12.66,NO,2021-09-24 02:48:36
352,Tianpeng,30.9866,103.9393,75.67,80,92,4.94,CN,2021-09-24 02:48:37
353,Leshukonskoye,64.8989,45.7622,42.1,88,71,6.46,RU,2021-09-24 02:48:37
354,Antsohihy,-14.8796,47.9875,68.22,64,1,7.34,MG,2021-09-24 02:48:38
355,Fairbanks,64.8378,-147.7164,40.96,59,90,1.01,US,2021-09-24 02:47:09
356,Uvalde,29.3669,-99.767,73.58,30,1,5.75,US,2021-09-24 02:48:38
357,Porterville,36.0652,-119.0168,82.76,41,100,4.61,US,2021-09-24 02:48:39
358,Lokoja,7.8024,6.743,74.59,95,99,1.39,NG,2021-09-24 02:48:39
359,Talnakh,69.4865,88.3972,35.46,70,5,5.86,RU,2021-09-24 02:48:39
360,Beloha,-25.1667,45.05,64.47,96,15,6.93,MG,2021-09-24 02:48:40
361,Folldal,62.1325,9.9968,34.61,88,100,2.66,NO,2021-09-24 02:48:40
362,Bandarbeyla,9.4942,50.8122,77.99,80,76,22.37,SO,2021-09-24 02:48:41
363,Zhangaözen,43.3,52.8,66.88,20,0,23.42,KZ,2021-09-24 02:48:41
364,Kismayo,-0.3582,42.5454,78.13,69,66,17.22,SO,2021-09-24 02:48:41
365,Shingū,33.7333,135.9833,83.39,65,17,6.62,JP,2021-09-24 02:48:42
366,Melfi,40.9965,15.6514,46.69,37,52,4.36,IT,2021-09-24 02:48:42
367,Lagos,6.5833,3.75,77.32,92,90,2.55,NG,2021-09-24 02:45:05
368,Kloulklubed,7.0419,134.2556,84.7,74,100,6.69,PW,2021-09-24 02:48:43
369,Novoagansk,61.9449,76.6625,36.72,98,100,9.64,RU,2021-09-24 02:48:43
370,Anekal,12.7,77.7,74.71,80,86,9.01,IN,2021-09-24 02:48:43
371,Nueva Londres,-25.4045,-56.5498,62.96,69,93,5.37,PY,2021-09-24 02:48:44
372,Lompoc,34.6391,-120.4579,66.22,88,75,6.91,US,2021-09-24 02:48:17
373,Sampit,-2.5333,112.95,83.28,79,86,2.17,ID,2021-09-24 02:48:44
374,Lüderitz,-26.6481,15.1594,57.88,59,13,12.08,NA,2021-09-24 02:48:45
375,Niquero,20.0431,-77.5828,79.57,82,10,1.83,CU,2021-09-24 02:48:45
376,Alofi,-19.0595,-169.9187,80.49,57,20,9.22,NU,2021-09-24 02:48:46
377,Makakilo City,21.3469,-158.0858,80.92,66,90,9.22,US,2021-09-24 02:45:42
378,Honiara,-9.4333,159.95,83.8,76,52,5.41,SB,2021-09-24 02:48:46
379,Luchegorsk,46.4764,134.2569,62.04,48,0,3.58,RU,2021-09-24 02:48:47
380,Diofior,14.1833,-16.6667,77.92,83,98,6.78,SN,2021-09-24 02:48:47
381,Camacupa,-12.0167,17.4833,63.39,29,57,4.88,AO,2021-09-24 02:48:49
382,Gandajika,-6.75,23.95,67.32,83,99,2.46,CD,2021-09-24 02:48:49
383,Kabare,-2.4683,28.8242,60.91,84,85,2.13,CD,2021-09-24 02:48:49
384,Port Hueneme,34.1478,-119.1951,83.32,86,75,9.22,US,2021-09-24 02:48:50
385,Malakal,9.5334,31.6605,72.73,93,99,2.37,SS,2021-09-24 02:48:50
386,Kutum,14.2,24.6667,76.06,23,77,8.3,SD,2021-09-24 02:48:51
387,Radomsko,51.0671,19.4448,52.72,69,100,20.94,PL,2021-09-24 02:48:51
388,Saint-Joseph,-21.3667,55.6167,68.36,75,17,11.12,RE,2021-09-24 02:48:51
389,Ahipara,-35.1667,173.1667,61.02,69,67,15.01,NZ,2021-09-24 02:48:52
390,Palmer,42.1584,-72.3287,74.62,78,75,1.99,US,2021-09-24 02:48:52
391,Atar,20.5169,-13.0499,87.57,24,6,7.61,MR,2021-09-24 02:48:53
392,Luang Prabang,19.8856,102.1347,76.96,83,40,2.3,LA,2021-09-24 02:48:53
393,Kiryat Gat,31.61,34.7642,72.39,100,26,6.73,IL,2021-09-24 02:48:54
394,Olafsvik,64.8945,-23.7142,42.1,86,100,13.47,IS,2021-09-24 02:48:54
395,Nishihara,26.1842,127.7558,87.08,66,40,14.97,JP,2021-09-24 02:48:55
396,Stornoway,58.2093,-6.3865,58.96,88,90,19.57,GB,2021-09-24 02:48:55
397,Murgab,37.4966,61.9714,60.67,44,0,4.61,TM,2021-09-24 02:48:55
398,Holenarasipura,12.7828,76.2431,74.05,81,100,6.91,IN,2021-09-24 02:48:56
399,Kahului,20.8947,-156.47,84.22,59,40,20.71,US,2021-09-24 02:48:56
400,Río Gallegos,-51.6226,-69.2181,48.25,61,0,12.66,AR,2021-09-24 02:48:57
401,Vila,42.0304,-8.1588,56.34,93,100,7.05,PT,2021-09-24 02:48:57
402,Cochabamba,-17.3895,-66.1568,60.55,45,40,4.61,BO,2021-09-24 02:48:57
403,Nanjing,32.0617,118.7778,85.91,48,47,16.62,CN,2021-09-24 02:48:43
404,Fare,-16.7,-151.0167,77.58,73,3,13.56,PF,2021-09-24 02:48:58
405,Yambio,4.5721,28.3955,65.07,99,87,3.53,SS,2021-09-24 02:48:58
406,Saquena,-4.6667,-73.5167,74.43,88,76,1.81,PE,2021-09-24 02:48:59
407,Broome,42.2506,-75.833,60.37,80,20,1.01,US,2021-09-24 02:48:59
408,Mahibadhoo,3.7833,72.9667,83.28,75,99,13.65,MV,2021-09-24 02:49:00
409,Chui,-33.6971,-53.4616,54.86,95,69,5.68,UY,2021-09-24 02:49:00
410,Cape Coast,5.1053,-1.2466,75.52,92,98,7.36,GH,2021-09-24 02:49:01
411,Gorontalo,0.5412,123.0595,86.31,68,39,3.87,ID,2021-09-24 02:49:01
412,Provideniya,64.3833,-173.3,32.11,86,90,8.95,RU,2021-09-24 02:49:01
413,Waipawa,-41.4122,175.5153,63.23,71,3,7.76,NZ,2021-09-24 02:49:02
414,Koppies,-27.2418,27.5742,56.25,43,5,4.05,ZA,2021-09-24 02:49:02
415,Mława,53.1128,20.3841,49.89,80,99,22.55,PL,2021-09-24 02:49:03
416,Bubaque,11.2833,-15.8333,80.67,78,100,4.34,GW,2021-09-24 02:49:03
417,Presidente Médici,-11.1753,-61.9014,88.72,29,84,4.45,BR,2021-09-24 02:49:04
418,Ouadda,8.0777,22.4007,66.85,98,100,3.78,CF,2021-09-24 02:49:04
419,Colesberg,-30.72,25.0972,56.86,35,69,3.24,ZA,2021-09-24 02:49:04
420,Dhidhdhoo,6.8833,73.1,82.17,77,90,13.44,MV,2021-09-24 02:49:05
421,Barcelos,41.5388,-8.6151,66.92,81,100,5.17,PT,2021-09-24 02:49:05
422,Bonavista,48.6499,-53.1147,53.11,87,93,16.42,CA,2021-09-24 02:49:06
423,Gornopravdinsk,60.05,69.9,36.64,89,97,3.0,RU,2021-09-24 02:49:06
424,Puri,19.8,85.85,84.72,74,64,3.11,IN,2021-09-24 02:49:06
425,Sohag,26.557,31.6948,75.49,42,0,7.14,EG,2021-09-24 02:49:07
426,Biltine,14.5333,20.9167,83.59,37,5,4.25,TD,2021-09-24 02:49:07
427,Deputatsky,69.3,139.9,37.67,68,26,10.42,RU,2021-09-24 02:49:07
428,Mumford,5.2618,-0.759,75.54,91,92,7.38,GH,2021-09-24 02:49:08
429,Pitmedden,57.3369,-2.1802,56.68,80,24,9.22,GB,2021-09-24 02:49:08
430,Māngrol,21.1167,70.1167,81.46,78,72,2.98,IN,2021-09-24 02:49:09
431,Lata,40.1629,-8.3327,60.04,92,100,4.56,PT,2021-09-24 02:49:09
432,Banda Aceh,5.5577,95.3222,85.82,61,18,2.44,ID,2021-09-24 02:49:10
433,Bartica,6.4,-58.6167,75.52,93,21,2.98,GY,2021-09-24 02:49:10
434,Mulegé,26.8833,-111.9833,86.29,64,93,0.85,MX,2021-09-24 02:49:10
435,Warburg,51.5,9.1667,58.32,94,75,9.22,DE,2021-09-24 02:49:11
436,Shagonar,51.5333,92.8,42.21,85,100,2.13,RU,2021-09-24 02:49:11
437,Reyes,-14.3167,-67.3833,78.4,61,17,3.94,BO,2021-09-24 02:49:12
438,Sarangani,5.4033,125.4636,83.12,76,90,7.94,PH,2021-09-24 02:49:12
439,Praia da Vitória,38.7333,-27.0667,68.25,77,20,8.81,PT,2021-09-24 02:49:12
440,Youkounkoun,12.5333,-13.1333,73.42,98,100,3.44,GN,2021-09-24 02:49:13
441,Karligan,14.975,122.0456,83.79,79,100,12.82,PH,2021-09-24 02:49:13
442,Tarko-Sale,64.9225,77.785,36.1,70,99,14.34,RU,2021-09-24 02:49:14
443,Santa Cruz de la Sierra,-17.8,-63.1667,76.46,47,96,16.11,BO,2021-09-24 02:49:14
444,Tafresh,34.692,50.013,62.82,18,0,3.8,IR,2021-09-24 02:49:15
445,Mitchell,43.7094,-98.0298,66.18,62,1,3.44,US,2021-09-24 02:48:10
446,Isangel,-19.55,169.2667,78.91,61,75,9.22,VU,2021-09-24 02:49:15
447,Tirumullaivāsal,11.2333,79.8333,84.7,65,87,6.87,IN,2021-09-24 02:49:16
448,Bolobo,-2.1667,16.2333,71.31,82,100,1.36,CD,2021-09-24 02:49:16
449,Sechura,-5.5569,-80.8222,64.99,82,9,8.75,PE,2021-09-24 02:49:16
450,Asău,46.4333,26.4,49.12,81,99,8.41,RO,2021-09-24 02:49:17
451,Hambantota,6.1241,81.1185,82.74,89,20,4.61,LK,2021-09-24 02:49:17
452,Ust'-Barguzin,53.45,108.9833,49.33,53,100,8.34,RU,2021-09-24 02:49:18
453,Aktash,50.3,87.7333,28.24,57,100,3.91,RU,2021-09-24 02:49:18
454,Owando,-0.4819,15.8999,71.17,97,100,1.86,CG,2021-09-24 02:49:19
455,Vigrestad,58.5667,5.7,50.0,75,100,12.17,NO,2021-09-24 02:49:19
456,Namatanai,-3.6667,152.4333,84.61,66,100,6.55,PG,2021-09-24 02:49:20
457,Sydney,-33.8679,151.2073,82.31,36,0,1.99,AU,2021-09-24 02:49:00
458,Bilibino,68.0546,166.4372,29.39,75,81,3.22,RU,2021-09-24 02:49:20
459,Bolshaya Glushitsa,50.2406,43.5908,45.3,77,100,1.03,RU,2021-09-24 02:49:21
460,Kenora,49.8167,-94.4337,65.37,59,40,6.91,CA,2021-09-24 02:49:21
461,Horsham,51.064,-0.3272,58.69,94,6,4.61,GB,2021-09-24 02:49:22
462,Changji,44.0167,87.3167,59.79,33,0,6.71,CN,2021-09-24 02:49:22
463,Terra Santa,-2.1042,-56.4869,80.22,67,100,2.64,BR,2021-09-24 02:49:22
464,Bikaner,28.0167,73.3,83.17,69,81,9.51,IN,2021-09-24 02:49:23
465,Dickinson,29.4608,-95.0513,74.95,70,1,0.0,US,2021-09-24 02:49:23
466,Westport,41.1415,-73.3579,76.82,94,90,3.0,US,2021-09-24 02:49:24
467,Bedēsa,8.9,40.7833,60.21,90,49,3.74,ET,2021-09-24 02:49:24
468,Cascais,38.6979,-9.4215,66.47,72,3,3.87,PT,2021-09-24 02:49:24
469,Eyl,7.9803,49.8164,77.81,78,77,18.5,SO,2021-09-24 02:49:25
470,Townsville,-19.25,146.8,77.88,50,75,17.27,AU,2021-09-24 02:46:06
471,Ondangwa,-17.9167,15.95,71.6,20,7,4.61,NA,2021-09-24 02:49:25
472,Teófilo Otoni,-17.8575,-41.5053,61.23,82,4,6.29,BR,2021-09-24 02:49:26
473,Eilat,29.5581,34.9482,78.64,61,0,13.8,IL,2021-09-24 02:49:26
474,Camacha,33.0833,-16.3333,67.42,73,40,8.05,PT,2021-09-24 02:49:27
475,Yurty,56.0498,97.6348,36.99,98,100,1.41,RU,2021-09-24 02:49:27
476,Puerto del Rosario,28.5004,-13.8627,71.35,83,1,9.22,ES,2021-09-24 02:49:28
477,Akom,2.6678,12.7109,66.09,99,100,2.57,CM,2021-09-24 02:49:28
478,Baruun-Urt,46.6806,113.2792,57.4,67,96,15.55,MN,2021-09-24 02:49:29
479,Palauig,15.435,119.9045,86.14,67,38,5.5,PH,2021-09-24 02:49:29
480,Constantine,36.365,6.6147,76.41,43,75,2.3,DZ,2021-09-24 02:49:29
481,Lodwar,3.1191,35.5973,79.23,50,86,15.26,KE,2021-09-24 02:49:30
482,Changping,40.2186,116.2197,64.04,95,100,0.36,CN,2021-09-24 02:49:30
483,Gannan,47.9147,123.5031,58.46,70,100,9.4,CN,2021-09-24 02:49:31
484,Tuy Hoa,13.0833,109.3,81.45,77,100,2.28,VN,2021-09-24 02:49:31
485,Bagan,54.1001,77.6646,39.88,66,100,10.25,RU,2021-09-24 02:49:31
486,New Ulm,44.3125,-94.4605,62.56,51,1,6.91,US,2021-09-24 02:49:32
487,Semey,50.4111,80.2275,37.62,87,40,8.95,KZ,2021-09-24 02:49:32
488,Dornoch,57.8805,-4.0288,61.47,79,36,21.94,GB,2021-09-24 02:49:33
489,Valparaíso,-33.0393,-71.6273,55.04,82,0,5.75,CL,2021-09-24 02:49:33
490,Daru,-9.0763,143.2092,77.32,85,100,16.11,PG,2021-09-24 02:49:33
491,Divnomorskoye,44.5011,38.1353,52.52,77,1,6.8,RU,2021-09-24 02:49:34
492,Poum,-20.2333,164.0167,71.2,67,79,8.03,NC,2021-09-24 02:49:34
493,Bar Harbor,44.3876,-68.2039,65.46,92,90,5.01,US,2021-09-24 02:49:35
494,Aloleng,16.1307,119.7824,85.87,67,37,2.44,PH,2021-09-24 02:49:35
495,Carnot,4.9409,15.8665,68.77,96,100,1.99,CF,2021-09-24 02:49:35
496,Yining,29.0361,114.5636,92.07,53,98,2.08,CN,2021-09-24 02:49:36
497,Tarakan,3.3,117.6333,80.1,83,40,6.91,ID,2021-09-24 02:49:37
498,Plettenberg Bay,-34.0527,23.3716,56.61,85,15,5.99,ZA,2021-09-24 02:49:37
499,Ulladulla,-35.35,150.4667,79.88,36,0,13.56,AU,2021-09-24 02:49:37
500,Vostok,46.4856,135.8833,55.65,49,0,6.8,RU,2021-09-24 02:49:38
501,Key West,24.5557,-81.7826,82.99,78,1,0.0,US,2021-09-24 02:49:38
502,Verkhniy Lomov,53.4678,43.5511,43.68,88,85,4.74,RU,2021-09-24 02:49:38
503,Mawlaik,23.6333,94.4167,86.36,70,12,0.31,MM,2021-09-24 02:49:39
504,Boralday,43.3578,76.8594,53.46,35,20,4.47,KZ,2021-09-24 02:49:39
505,Buchanan,5.8808,-10.0467,76.69,88,98,5.46,LR,2021-09-24 02:49:40
506,Xining,36.6167,101.7667,53.55,80,100,2.46,CN,2021-09-24 02:49:40
507,Sabae,35.9465,136.185,76.78,62,83,8.41,JP,2021-09-24 02:49:41
508,Hirado,33.3597,129.5531,78.15,65,100,19.22,JP,2021-09-24 02:49:41
509,Mnogovershinnyy,53.9353,139.9242,56.32,48,0,0.56,RU,2021-09-24 02:49:42
510,Rietavas,55.7194,21.9311,48.81,90,96,14.54,LT,2021-09-24 02:49:42
511,Leh,34.1667,77.5833,52.81,55,11,5.5,IN,2021-09-24 02:49:43
512,Hulan,45.9833,126.6,62.71,58,34,5.95,CN,2021-09-24 02:49:43
513,Noumea,-22.2763,166.4572,76.98,57,14,20.0,NC,2021-09-24 02:48:36
514,Cedar City,37.6775,-113.0619,66.4,20,1,9.22,US,2021-09-24 02:49:44
515,Şurmān,32.7567,12.5716,77.27,73,11,11.77,LY,2021-09-24 02:49:44
516,Vardø,70.3705,31.1107,44.8,75,100,22.97,NO,2021-09-24 02:49:44
517,Yangi Marg`ilon,40.4272,71.7189,62.02,44,0,4.61,UZ,2021-09-24 02:49:45
518,Millinocket,45.6573,-68.7098,68.02,95,75,0.0,US,2021-09-24 02:49:45
519,Meadow Lake,34.8014,-106.5436,78.28,28,100,8.79,US,2021-09-24 02:49:46
520,Ilulissat,69.2167,-51.1,24.82,74,75,9.22,GL,2021-09-24 02:49:46
521,Samarai,-10.6167,150.6667,78.4,87,69,13.85,PG,2021-09-24 02:49:46
522,Cap-aux-Meules,47.3821,-61.8597,57.25,100,75,4.61,CA,2021-09-24 02:46:01
523,Havre-St-Pierre,50.2334,-63.5986,52.39,93,90,5.75,CA,2021-09-24 02:49:47
524,Walvis Bay,-22.9575,14.5053,55.09,93,1,2.3,NA,2021-09-24 02:49:47
525,Cheektowaga,42.9034,-78.7548,57.99,72,75,17.27,US,2021-09-24 02:49:48
526,Rabo de Peixe,37.8,-25.5833,65.71,77,20,5.75,PT,2021-09-24 02:49:48
527,Batagay-Alyta,67.8006,130.4114,39.29,64,93,2.44,RU,2021-09-24 02:49:49
528,Charters Towers,-20.1,146.2667,81.55,28,2,11.14,AU,2021-09-24 02:49:49
529,Samarinda,-0.5,117.15,81.72,83,100,0.36,ID,2021-09-24 02:49:49
530,Vallenar,-28.5708,-70.7581,66.51,29,0,0.6,CL,2021-09-24 02:49:50
531,Vyartsilya,62.1764,30.693,46.17,93,100,9.42,RU,2021-09-24 02:49:50
532,Broken Hill,-31.95,141.4333,76.71,18,0,18.41,AU,2021-09-24 02:49:51
533,Altay,47.8667,88.1167,49.57,34,100,5.84,CN,2021-09-24 02:49:51
534,Boa Esperança do Sul,-21.9925,-48.3908,60.42,71,3,7.47,BR,2021-09-24 02:49:51
535,Faanui,-16.4833,-151.75,77.11,73,10,12.91,PF,2021-09-24 02:49:52
536,Wewak,-3.5534,143.6268,80.74,81,100,7.18,PG,2021-09-24 02:49:52
537,Esfarāyen,37.0765,57.5101,58.66,17,0,7.05,IR,2021-09-24 02:49:53
538,Halifax,44.6453,-63.5724,64.45,94,2,3.44,CA,2021-09-24 02:49:41
539,Alta Floresta,-9.8756,-56.0861,80.17,51,43,3.44,BR,2021-09-24 02:49:53
540,Lawigan,10.487,122.0354,87.8,64,85,1.28,PH,2021-09-24 02:49:54
541,Fort Nelson,58.8053,-122.7002,51.39,37,75,4.61,CA,2021-09-24 02:49:54
542,Chernyshevskiy,63.0128,112.4714,42.58,74,100,4.38,RU,2021-09-24 02:49:54
543,Ngunguru,-35.6167,174.5,65.16,64,24,14.32,NZ,2021-09-24 02:49:55
544,Fatehābād,29.5167,75.45,78.73,83,100,4.9,IN,2021-09-24 02:49:55
545,Paita,-5.0892,-81.1144,64.6,87,10,7.58,PE,2021-09-24 02:49:56
546,Tura,25.5198,90.2201,83.26,70,10,0.85,IN,2021-09-24 02:49:56
547,Morant Bay,17.8815,-76.4093,82.02,82,62,1.03,JM,2021-09-24 02:49:56
548,Andros Town,24.7,-77.7667,80.56,71,99,6.91,BS,2021-09-24 02:49:57
549,Manaus,-3.1019,-60.025,81.09,74,0,3.44,BR,2021-09-24 02:49:57
550,Mitú,1.1983,-70.1733,70.36,99,58,1.52,CO,2021-09-24 02:49:58
551,Yar-Sale,66.8333,70.8333,38.86,87,77,8.01,RU,2021-09-24 02:49:58
552,Jamālpur,24.9167,89.9333,85.33,69,24,3.51,BD,2021-09-24 02:49:58
553,Bulancak,40.9372,38.2291,57.02,88,75,0.0,TR,2021-09-24 02:49:59
554,Teya,60.3778,92.6267,34.39,86,100,7.11,RU,2021-09-24 02:49:59
555,Quatre Cocos,-20.2078,57.7625,72.09,80,37,15.52,MU,2021-09-24 02:50:00
556,Tam Ky,15.5667,108.4833,85.98,88,93,3.96,VN,2021-09-24 02:45:54
557,Pakse,15.1167,105.7833,75.34,100,90,13.8,LA,2021-09-24 02:50:00
558,Amurzet,47.6967,131.0981,62.98,42,36,6.85,RU,2021-09-24 02:50:01
559,Sorong,-0.8833,131.25,80.83,78,79,15.39,ID,2021-09-24 02:45:06
560,Biak,-0.9131,122.8766,80.92,76,84,6.49,ID,2021-09-24 02:50:01
561,Araçuaí,-16.8497,-42.0703,67.3,71,36,7.63,BR,2021-09-24 02:50:02
562,Lishui,28.4604,119.9103,87.4,55,16,3.29,CN,2021-09-24 02:50:04
563,Boffa,10.1667,-14.0333,73.51,95,100,3.71,GN,2021-09-24 02:50:05
