,City,Latitude,Longitude,Max Temperature,Humidity,Cloudiness,Wind Speed,Country,Date
0,Oktyabr'skiy,54.4815,53.471,50.07,64,100,15.77,RU,2021-09-24 05:29:17
1,Bubaque,11.2833,-15.8333,80.87,77,100,4.14,GW,2021-09-24 05:29:17
2,Avarua,-21.2078,-159.775,71.65,68,75,4.61,CK,2021-09-24 05:29:18
3,Hermanus,-34.4187,19.2345,55.9,87,46,7.27,ZA,2021-09-24 05:29:18
4,Santa Fe,-31.6333,-60.7,58.01,86,0,1.99,AR,2021-09-24 05:29:13
5,Port Alfred,-33.5906,26.891,60.84,80,89,11.43,ZA,2021-09-24 05:29:19
6,Nago,26.5881,127.9761,88.23,55,0,14.32,JP,2021-09-24 05:29:19
7,Pevek,69.7008,170.3133,28.6,83,99,14.14,RU,2021-09-24 05:29:20
8,Vardø,70.3705,31.1107,46.6,78,99,21.74,NO,2021-09-24 05:29:20
9,Vaini,-21.2,-175.2,77.16,88,90,6.91,TO,2021-09-24 05:29:21
10,Lavrentiya,65.5833,-171.0,32.34,72,98,6.96,RU,2021-09-24 05:29:21
11,Stepnyak,52.8339,70.7803,42.22,53,8,4.94,KZ,2021-09-24 05:29:21
12,Sitka,57.0531,-135.33,57.09,88,90,12.66,US,2021-09-24 05:29:22
13,Chokurdakh,70.6333,147.9167,33.75,98,100,8.57,RU,2021-09-24 05:29:22
14,Punta Arenas,-53.15,-70.9167,43.72,78,100,7.99,CL,2021-09-24 05:29:23
15,Singaraja,-8.112,115.0882,82.22,76,92,7.25,ID,2021-09-24 05:29:23
16,Karad,17.2833,74.2,79.18,69,99,5.37,IN,2021-09-24 05:25:26
17,Hobart,-42.8794,147.3294,45.1,86,75,1.01,AU,2021-09-24 05:29:24
18,Meulaboh,4.1363,96.1285,85.75,65,39,4.56,ID,2021-09-24 05:29:24
19,Aden,12.7794,45.0367,86.88,74,36,4.21,YE,2021-09-24 05:29:25
20,Chernyshevskiy,63.0128,112.4714,45.97,61,95,4.52,RU,2021-09-24 05:29:25
21,Kapaa,22.0752,-159.319,82.38,75,75,5.01,US,2021-09-24 05:29:25
22,Rikitea,-23.1203,-134.9692,74.34,77,100,20.58,PF,2021-09-24 05:29:26
23,Praia,14.9215,-23.5087,77.54,78,40,11.5,CV,2021-09-24 05:29:26
24,Mataura,-46.1927,168.8643,50.49,68,98,5.44,NZ,2021-09-24 05:29:27
25,Saurimo,-9.6608,20.3916,61.57,88,89,3.65,AO,2021-09-24 05:29:27
26,San Quintín,30.4833,-115.95,70.09,79,68,9.6,MX,2021-09-24 05:29:27
27,Clyde River,70.4692,-68.5914,26.87,73,70,6.91,CA,2021-09-24 05:29:28
28,Taltal,-25.4,-70.4833,57.65,76,25,2.42,CL,2021-09-24 05:29:28
29,Yellowknife,62.456,-114.3525,43.32,100,90,8.05,CA,2021-09-24 05:29:29
30,Kumul,42.8,93.45,78.06,13,36,3.44,CN,2021-09-24 05:29:29
31,Shimoda,34.6667,138.95,79.16,66,13,7.94,JP,2021-09-24 05:29:29
32,Avera,33.194,-82.5271,59.72,67,0,6.04,US,2021-09-24 05:29:30
33,Puerto Peñasco,31.3167,-113.5333,85.91,74,64,1.99,MX,2021-09-24 05:29:30
34,Tiksi,71.6872,128.8694,37.71,78,50,22.7,RU,2021-09-24 05:29:31
35,Namatanai,-3.6667,152.4333,83.68,69,89,8.55,PG,2021-09-24 05:29:31
36,Bandarbeyla,9.4942,50.8122,82.51,66,36,25.32,SO,2021-09-24 05:29:31
37,Aksu,41.1231,80.2644,76.69,21,0,3.42,CN,2021-09-24 05:29:32
38,Nanortalik,60.1432,-45.2371,34.47,69,25,16.02,GL,2021-09-24 05:29:32
39,Iisalmi,63.5592,27.1907,44.62,88,100,9.46,FI,2021-09-24 05:29:33
40,Dibulla,11.2725,-73.3091,77.65,85,90,6.15,CO,2021-09-24 05:29:33
41,Bluff,-46.6,168.3333,50.81,69,100,12.01,NZ,2021-09-24 05:29:33
42,Port Hedland,-20.3167,118.5667,93.25,8,2,14.97,AU,2021-09-24 05:29:34
43,Ushuaia,-54.8,-68.3,44.26,70,75,5.75,AR,2021-09-24 05:29:34
44,Camacha,33.0833,-16.3333,66.96,68,40,8.05,PT,2021-09-24 05:29:35
45,Mount Gambier,-37.8333,140.7667,53.51,71,75,20.71,AU,2021-09-24 05:29:35
46,Fairbanks,64.8378,-147.7164,37.6,65,90,1.01,US,2021-09-24 05:29:35
47,Naze,28.3667,129.4833,85.12,59,0,11.99,JP,2021-09-24 05:29:36
48,Nuevo Casas Grandes,30.4167,-107.9167,60.75,92,48,1.01,MX,2021-09-24 05:29:36
49,Mazamari,-11.3258,-74.5308,67.73,86,25,2.21,PE,2021-09-24 05:29:37
50,Mogadishu,2.0371,45.3438,82.27,83,75,13.8,SO,2021-09-24 05:25:21
51,Ribeira Grande,38.5167,-28.7,69.8,66,98,12.82,PT,2021-09-24 05:29:37
52,Bredasdorp,-34.5322,20.0403,52.92,87,48,8.05,ZA,2021-09-24 05:29:38
53,Albany,42.6001,-73.9662,68.9,93,100,7.81,US,2021-09-24 05:28:31
54,Sistranda,63.7256,8.834,46.9,69,100,11.27,NO,2021-09-24 05:29:38
55,Grindavik,63.8424,-22.4338,40.95,87,75,4.61,IS,2021-09-24 05:29:39
56,Williams Lake,52.1415,-122.1445,54.97,65,90,2.3,CA,2021-09-24 05:29:39
57,Nouadhibou,20.931,-17.0347,67.98,94,1,12.66,MR,2021-09-24 05:29:40
58,Mahibadhoo,3.7833,72.9667,83.82,74,90,13.31,MV,2021-09-24 05:29:40
59,Pangnirtung,66.1451,-65.7125,30.07,56,10,4.92,CA,2021-09-24 05:29:40
60,Novy Urengoy,66.0833,76.6333,37.89,66,41,13.27,RU,2021-09-24 05:29:41
61,Sarāhan,31.5167,77.8,67.87,72,35,5.14,IN,2021-09-24 05:29:41
62,Angermünde,53.015,13.9992,55.08,72,100,17.16,DE,2021-09-24 05:29:42
63,Dikson,73.5069,80.5464,34.56,72,24,10.25,RU,2021-09-24 05:29:42
64,Tuktoyaktuk,69.4541,-133.0374,30.2,93,75,5.75,CA,2021-09-24 05:29:42
65,Puerto Ayora,-0.7393,-90.3518,68.9,88,66,8.72,EC,2021-09-24 05:29:43
66,Hegang,47.4,130.3667,63.27,40,53,5.99,CN,2021-09-24 05:29:43
67,Lebu,-37.6167,-73.65,49.78,86,1,8.93,CL,2021-09-24 05:27:11
68,Constitución,-35.3333,-72.4167,54.05,70,0,5.97,CL,2021-09-24 05:27:35
69,Port Elizabeth,-33.918,25.5701,59.29,72,0,6.91,ZA,2021-09-24 05:29:44
70,Hasaki,35.7333,140.8333,84.49,62,12,9.64,JP,2021-09-24 05:29:44
71,Candelaria,13.9311,121.4233,89.15,60,91,8.25,PH,2021-09-24 05:29:45
72,Bethel,41.3712,-73.414,74.08,94,90,3.44,US,2021-09-24 05:29:45
73,Victor Harbor,-35.5667,138.6167,61.92,51,66,4.0,AU,2021-09-24 05:29:46
74,Nazas,25.2333,-104.1333,68.41,76,71,7.81,MX,2021-09-24 05:29:46
75,Kabo,7.6994,18.629,70.63,95,100,1.57,CF,2021-09-24 05:29:47
76,Lompoc,34.6391,-120.4579,57.63,94,90,0.0,US,2021-09-24 05:29:47
77,Port Macquarie,-31.4333,152.9167,75.16,47,2,7.7,AU,2021-09-24 05:29:48
78,Sikeston,36.8767,-89.5879,54.79,100,1,0.0,US,2021-09-24 05:29:48
79,Pangkalanbuun,-2.6833,111.6167,84.92,73,92,0.69,ID,2021-09-24 05:29:48
80,Baruun-Urt,46.6806,113.2792,62.02,62,62,13.71,MN,2021-09-24 05:29:49
81,Kharp,66.8014,65.8081,41.43,62,75,2.46,RU,2021-09-24 05:29:49
82,Vanderhoof,54.0166,-124.0198,47.26,95,100,3.8,CA,2021-09-24 05:29:49
83,Itaituba,-4.2761,-55.9836,74.1,87,94,0.67,BR,2021-09-24 05:29:50
84,Half Moon Bay,37.4636,-122.4286,73.92,79,90,0.0,US,2021-09-24 05:29:50
85,Jamestown,42.097,-79.2353,54.07,83,90,8.99,US,2021-09-24 05:26:10
86,Mae Sot,16.7167,98.5667,84.15,70,20,2.3,TH,2021-09-24 05:29:51
87,Allada,6.6655,2.1514,77.76,97,80,3.74,BJ,2021-09-24 05:29:51
88,Teknāf,20.8624,92.3058,85.84,72,94,1.68,BD,2021-09-24 05:29:52
89,Batagay-Alyta,67.8006,130.4114,40.06,62,92,1.83,RU,2021-09-24 05:29:52
90,Yerofey Pavlovich,53.9667,121.9667,52.74,67,98,1.1,RU,2021-09-24 05:29:53
91,Rock Sound,24.9,-76.2,82.87,74,87,7.43,BS,2021-09-24 05:29:53
92,Cerqueira César,-23.0356,-49.1661,52.14,87,90,9.19,BR,2021-09-24 05:29:53
93,Airai,-8.9266,125.4092,78.24,37,91,2.53,TL,2021-09-24 05:29:54
94,Mar del Plata,-38.0023,-57.5575,41.02,100,35,0.0,AR,2021-09-24 05:29:08
95,Paris,48.8534,2.3488,59.7,95,90,2.3,FR,2021-09-24 05:19:25
96,Saskylakh,71.9167,114.0833,33.67,98,100,7.47,RU,2021-09-24 05:29:55
97,Qaanaaq,77.484,-69.3632,17.1,62,100,5.55,GL,2021-09-24 05:29:55
98,Clovis,36.8252,-119.7029,80.49,48,40,5.75,US,2021-09-24 05:29:15
99,Bud,39.447,-86.1758,50.43,88,0,7.18,US,2021-09-24 05:29:56
100,Novo Oriente,-5.5344,-40.7742,78.21,52,75,6.73,BR,2021-09-24 05:29:56
101,Iqaluit,63.7506,-68.5145,31.73,86,90,11.5,CA,2021-09-24 05:29:51
102,Carahue,-38.7,-73.1667,41.2,84,1,1.16,CL,2021-09-24 05:29:57
103,Deputatsky,69.3,139.9,37.76,65,32,12.1,RU,2021-09-24 05:29:57
104,Port Hawkesbury,45.6169,-61.3485,64.72,94,1,1.99,CA,2021-09-24 05:29:58
105,Saint-Philippe,-21.3585,55.7679,76.59,81,45,10.25,RE,2021-09-24 05:29:58
106,Lososina,48.9975,140.3106,56.26,63,58,5.84,RU,2021-09-24 05:29:59
107,Pokhara,28.2333,83.9833,78.08,79,38,4.27,NP,2021-09-24 05:27:29
108,Dehui,44.5333,125.7,66.51,60,16,4.99,CN,2021-09-24 05:29:59
109,Alofi,-19.0595,-169.9187,75.09,73,12,3.44,NU,2021-09-24 05:29:59
110,Husavik,66.0449,-17.3389,37.31,95,100,11.88,IS,2021-09-24 05:30:00
111,New Norfolk,-42.7826,147.0587,44.74,77,80,3.0,AU,2021-09-24 05:30:00
112,Lüderitz,-26.6481,15.1594,60.6,52,6,14.67,NA,2021-09-24 05:30:01
113,Savonlinna,61.8699,28.88,46.45,87,90,8.05,FI,2021-09-24 05:30:03
114,Sabha,27.0377,14.4283,80.24,18,6,7.05,LY,2021-09-24 05:30:04
115,Leningradskiy,69.3833,178.4167,25.72,92,100,13.47,RU,2021-09-24 05:30:04
116,Aklavik,68.2191,-135.0107,32.83,86,100,2.95,CA,2021-09-24 05:30:05
117,Souillac,-20.5167,57.5167,76.35,88,75,11.5,MU,2021-09-24 05:30:06
118,Toropets,56.4978,31.6353,40.78,95,100,14.76,RU,2021-09-24 05:30:06
119,Provideniya,64.3833,-173.3,32.11,86,90,11.18,RU,2021-09-24 05:30:07
120,Kamaishi,39.2667,141.8833,77.95,74,34,11.97,JP,2021-09-24 05:30:07
121,Garoowe,8.4054,48.4845,82.74,47,32,23.55,SO,2021-09-24 05:30:08
122,Samfya,-11.3649,29.5565,73.42,46,48,12.64,ZM,2021-09-24 05:30:09
123,Carutapera,-1.195,-46.02,78.31,78,33,7.54,BR,2021-09-24 05:30:09
124,Hilo,19.7297,-155.09,78.53,75,1,3.44,US,2021-09-24 05:30:09
125,St. George's,12.0564,-61.7485,82.08,83,20,2.3,GD,2021-09-24 05:28:35
126,Bengkulu,-3.8004,102.2655,84.99,68,42,8.3,ID,2021-09-24 05:30:10
127,Broome,42.2506,-75.833,54.99,78,1,6.91,US,2021-09-24 05:30:10
128,Marsá Maţrūḩ,31.3525,27.2453,73.38,58,90,20.67,EG,2021-09-24 05:30:11
129,Mandera,3.9366,41.867,82.67,45,72,15.55,KE,2021-09-24 05:30:11
130,Cidreira,-30.1811,-50.2056,60.4,95,100,7.02,BR,2021-09-24 05:30:12
131,The Valley,18.217,-63.0578,82.26,74,44,6.76,AI,2021-09-24 05:30:12
132,Pavlivka,49.4414,28.4596,46.81,90,100,21.54,UA,2021-09-24 05:30:12
133,Maneromango,-7.1988,38.7848,73.76,71,79,5.55,TZ,2021-09-24 05:30:13
134,Osorno,-40.5667,-73.15,43.11,100,0,0.0,CL,2021-09-24 05:30:13
135,Goderich,43.7501,-81.7165,55.72,88,100,17.27,CA,2021-09-24 05:29:10
136,Port Lincoln,-34.7333,135.8667,57.74,54,38,16.84,AU,2021-09-24 05:30:14
137,Ancud,-41.8697,-73.8203,50.43,87,93,5.21,CL,2021-09-24 05:30:14
138,Mosquera,4.7059,-74.2302,50.09,93,75,0.0,CO,2021-09-24 05:30:15
139,Guatire,10.4762,-66.5427,72.1,96,51,3.33,VE,2021-09-24 05:30:15
140,Faanui,-16.4833,-151.75,77.36,71,15,10.42,PF,2021-09-24 05:30:16
141,Mildura,-34.2,142.15,76.96,19,0,17.27,AU,2021-09-24 05:30:16
142,Flin Flon,54.7682,-101.865,44.55,79,100,14.05,CA,2021-09-24 05:30:08
143,Nikolskoye,59.7035,30.7861,46.02,79,100,10.07,RU,2021-09-24 05:30:17
144,Padang,-0.9492,100.3543,86.05,69,40,6.13,ID,2021-09-24 05:30:17
145,Menomonie,44.8755,-91.9193,51.82,93,29,3.44,US,2021-09-24 05:30:17
146,Cape Town,-33.9258,18.4232,56.88,93,75,8.05,ZA,2021-09-24 05:28:52
147,Calabazar de Sagua,22.6447,-79.8961,73.87,94,40,4.61,CU,2021-09-24 05:30:18
148,Kirensk,57.7853,108.1119,54.3,39,100,4.45,RU,2021-09-24 05:30:18
149,Castro,-24.7911,-50.0119,48.85,93,53,3.02,BR,2021-09-24 05:30:19
150,San Patricio,28.017,-97.5169,76.84,55,0,6.93,US,2021-09-24 05:30:19
151,Pacifica,37.6138,-122.4869,74.34,79,20,8.05,US,2021-09-24 05:30:20
152,Atar,20.5169,-13.0499,84.52,28,20,7.34,MR,2021-09-24 05:30:20
153,East London,-33.0153,27.9116,61.74,63,0,8.05,ZA,2021-09-24 05:30:21
154,Swan Hill,-35.3378,143.5544,66.96,41,18,21.12,AU,2021-09-24 05:30:21
155,Lavaca,28.615,-96.6261,69.85,77,1,4.61,US,2021-09-24 05:30:21
156,Bodden Town,19.2833,-81.25,82.92,90,32,6.22,KY,2021-09-24 05:30:22
157,Hisor,38.525,68.5512,76.75,12,0,2.44,TJ,2021-09-24 05:30:22
158,Oruzgan,32.8333,66.0,81.09,7,0,3.47,AF,2021-09-24 05:30:22
159,Měřín,49.3932,15.8838,58.86,59,94,17.52,CZ,2021-09-24 05:30:23
160,Saldanha,-33.0117,17.9442,51.85,89,50,1.99,ZA,2021-09-24 05:30:23
161,Cayenne,4.9333,-52.3333,81.09,85,87,0.0,GF,2021-09-24 05:30:24
162,São Filipe,14.8961,-24.4956,78.4,75,100,7.87,CV,2021-09-24 05:30:24
163,Metro,-5.1131,105.3067,89.8,52,94,10.51,ID,2021-09-24 05:30:25
164,Nemuro,43.3236,145.575,59.43,68,66,15.39,JP,2021-09-24 05:30:25
165,Angoram,-4.0625,144.0661,84.22,75,100,4.76,PG,2021-09-24 05:30:25
166,Mayo,38.8876,-76.5119,62.94,88,20,1.99,US,2021-09-24 05:30:26
167,Liuhe,42.2401,125.7172,71.51,56,85,1.54,CN,2021-09-24 05:30:26
168,Būlaevo,54.9056,70.4439,46.67,51,100,10.29,KZ,2021-09-24 05:30:27
169,Bambous Virieux,-20.3428,57.7575,76.21,88,75,11.5,MU,2021-09-24 05:30:27
170,Busselton,-33.65,115.3333,64.04,43,2,7.2,AU,2021-09-24 05:30:27
171,Vao,-22.6667,167.4833,68.7,60,88,14.74,NC,2021-09-24 05:30:28
172,Bouna,9.2667,-3.0,72.36,91,99,2.66,CI,2021-09-24 05:30:29
173,Torbay,47.6666,-52.7314,52.57,92,90,13.8,CA,2021-09-24 05:30:07
174,Nuevitas,21.5453,-77.2644,76.44,89,6,4.72,CU,2021-09-24 05:30:30
175,Grand-Santi,4.25,-54.3833,70.66,98,94,2.57,GF,2021-09-24 05:30:30
176,Mahébourg,-20.4081,57.7,76.24,88,75,11.5,MU,2021-09-24 05:30:31
177,Marsh Harbour,26.5412,-77.0636,82.0,73,19,5.64,BS,2021-09-24 05:30:31
178,Merauke,-8.4667,140.3333,80.94,77,85,20.18,ID,2021-09-24 05:30:31
179,Suez,29.9737,32.5263,76.39,61,16,11.39,EG,2021-09-24 05:30:32
180,Synya,65.3718,58.0387,43.09,82,100,3.8,RU,2021-09-24 05:30:32
181,Barrow,71.2906,-156.7887,30.22,80,90,10.36,US,2021-09-24 05:30:32
182,Laguna,38.421,-121.4238,82.24,44,1,1.01,US,2021-09-24 05:30:33
183,Tasiilaq,65.6145,-37.6368,32.16,66,95,4.81,GL,2021-09-24 05:30:33
184,Fort Nelson,58.8053,-122.7002,47.79,43,75,4.61,CA,2021-09-24 05:30:34
185,Rawson,-43.3002,-65.1023,59.2,46,68,19.01,AR,2021-09-24 05:30:34
186,Lagoa,39.05,-27.9833,68.13,70,100,11.12,PT,2021-09-24 05:30:35
187,Hofn,64.2539,-15.2082,41.29,82,100,14.38,IS,2021-09-24 05:30:35
188,Bagdogra,26.7,88.3167,88.83,62,32,3.87,IN,2021-09-24 05:30:36
189,Margate,51.3813,1.3862,57.06,91,10,1.01,GB,2021-09-24 05:30:36
190,Faya,18.3851,42.4509,70.32,24,39,5.82,SA,2021-09-24 05:30:36
191,Butaritari,3.0707,172.7902,82.65,76,11,15.93,KI,2021-09-24 05:30:37
192,Kruisfontein,-34.0033,24.7314,51.89,61,90,7.11,ZA,2021-09-24 05:30:37
193,Xaltianguis,17.0667,-99.8333,68.86,94,62,2.77,MX,2021-09-24 05:30:38
194,Dali,25.7,100.1833,72.95,64,13,3.74,CN,2021-09-24 05:30:38
195,Ponta do Sol,32.6667,-17.1,70.43,54,21,3.42,PT,2021-09-24 05:30:38
196,Kiama,-34.6833,150.8667,80.38,32,9,10.45,AU,2021-09-24 05:30:39
197,Smithers,54.7804,-127.1743,46.72,100,90,8.05,CA,2021-09-24 05:30:07
198,El Alto,-4.2714,-81.2147,62.67,87,68,12.77,PE,2021-09-24 05:30:39
199,Parrita,9.5201,-84.3225,80.37,93,100,1.83,CR,2021-09-24 05:30:40
200,Tuatapere,-46.1333,167.6833,50.83,88,100,6.96,NZ,2021-09-24 05:30:40
201,Qaqortoq,60.7167,-46.0333,30.7,60,3,5.73,GL,2021-09-24 05:30:41
202,Rørvik,64.8621,11.2373,42.91,100,75,2.3,NO,2021-09-24 05:30:41
203,Caravelas,-17.7125,-39.2481,69.15,71,93,8.61,BR,2021-09-24 05:30:42
204,Northam,51.0333,-4.2167,57.65,97,62,5.82,GB,2021-09-24 05:30:42
205,Kentau,43.5206,68.5094,74.71,15,98,12.39,KZ,2021-09-24 05:30:42
206,Upernavik,72.7868,-56.1549,27.41,94,100,10.31,GL,2021-09-24 05:30:43
207,Vila Franca do Campo,37.7167,-25.4333,64.81,75,98,4.52,PT,2021-09-24 05:30:43
208,Vokhma,58.9303,46.7586,46.54,94,100,11.72,RU,2021-09-24 05:30:44
209,Mount Isa,-20.7333,139.5,87.57,11,5,5.75,AU,2021-09-24 05:30:44
210,Puerto Baquerizo Moreno,-0.9,-89.6,68.7,86,43,9.53,EC,2021-09-24 05:30:44
211,Thompson,55.7435,-97.8558,46.56,93,90,12.66,CA,2021-09-24 05:30:09
212,Antalaha,-14.9003,50.2788,77.45,57,1,11.1,MG,2021-09-24 05:30:45
213,Port-Gentil,-0.7193,8.7815,76.96,94,90,3.44,GA,2021-09-24 05:30:45
214,Porto-Novo,6.4965,2.6036,78.62,92,79,3.47,BJ,2021-09-24 05:30:46
215,Atuona,-9.8,-139.0333,78.06,76,26,18.88,PF,2021-09-24 05:30:46
216,Jumla,29.2747,82.1838,70.29,68,82,4.99,NP,2021-09-24 05:30:47
217,Almaznyy,48.0448,40.045,50.14,77,77,4.7,RU,2021-09-24 05:30:47
218,Norman Wells,65.282,-126.8329,37.44,75,75,12.66,CA,2021-09-24 05:30:48
219,Tereze,43.9361,42.4434,43.3,97,100,4.92,RU,2021-09-24 05:30:48
220,Dingle,10.9995,122.6711,87.69,68,95,8.97,PH,2021-09-24 05:30:48
221,Bonthe,7.5264,-12.505,76.35,87,86,5.37,SL,2021-09-24 05:30:49
222,Sørland,67.667,12.6934,44.67,69,71,14.94,NO,2021-09-24 05:30:50
223,Araouane,18.9048,-3.5265,88.23,30,20,7.27,ML,2021-09-24 05:30:50
224,San Cristobal,7.7669,-72.225,65.19,96,100,3.22,VE,2021-09-24 05:30:50
225,Kavieng,-2.5744,150.7967,84.54,69,22,12.37,PG,2021-09-24 05:30:51
226,Tías,28.9611,-13.645,67.75,83,20,6.91,ES,2021-09-24 05:28:01
227,Inuvik,68.3499,-133.7218,32.86,80,75,6.91,CA,2021-09-24 05:26:21
228,Saint George,37.1041,-113.5841,84.79,17,1,1.99,US,2021-09-24 05:30:52
229,Hong Kong,22.2855,114.1577,93.16,81,47,1.99,HK,2021-09-24 05:27:21
230,Fortuna,40.5982,-124.1573,56.32,90,1,11.5,US,2021-09-24 05:30:52
231,Vestmannaeyjar,63.4427,-20.2734,43.36,77,87,17.07,IS,2021-09-24 05:30:53
232,George Town,5.4112,100.3354,89.55,62,20,5.75,MY,2021-09-24 05:30:08
233,Geraldton,-28.7667,114.6,83.12,36,0,19.57,AU,2021-09-24 05:30:54
234,Øksfjord,70.2396,22.3479,45.52,94,100,9.93,NO,2021-09-24 05:30:54
235,Ketchikan,55.3422,-131.6461,53.58,97,100,12.57,US,2021-09-24 05:30:55
236,Cabo San Lucas,22.8909,-109.9124,82.62,84,3,5.99,MX,2021-09-24 05:27:43
237,Vadum,57.1179,9.857,53.55,82,20,13.8,DK,2021-09-24 05:30:55
238,Kirakira,-10.4544,161.9205,82.09,79,58,9.19,SB,2021-09-24 05:30:56
239,Esperance,-33.8667,121.9,60.64,59,74,11.5,AU,2021-09-24 05:30:56
240,Yangambi,0.8102,24.4336,68.77,96,100,0.43,CD,2021-09-24 05:30:56
241,Hanna,51.6334,-111.9018,46.42,38,84,5.03,CA,2021-09-24 05:30:08
242,Necochea,-38.5473,-58.7368,46.04,94,1,6.98,AR,2021-09-24 05:30:57
243,Vanimo,-2.6741,141.3028,82.96,74,98,7.54,PG,2021-09-24 05:30:58
244,Catuday,16.2923,119.8062,84.0,69,5,6.02,PH,2021-09-24 05:30:58
245,Maumere,-8.6199,122.2111,82.2,69,100,3.0,ID,2021-09-24 05:30:58
246,Ilulissat,69.2167,-51.1,24.82,68,75,4.61,GL,2021-09-24 05:30:59
247,Dingzhou,38.5131,114.9956,69.91,96,100,9.82,CN,2021-09-24 05:30:59
248,Tegul'det,57.3064,88.1667,38.64,71,100,8.7,RU,2021-09-24 05:31:00
249,Hue,16.4667,107.6,89.71,58,40,14.97,VN,2021-09-24 05:31:00
250,Sungai Raya,0.7,108.9,89.46,58,57,7.16,ID,2021-09-24 05:31:00
251,Kaitangata,-46.2817,169.8464,52.48,68,69,3.83,NZ,2021-09-24 05:31:01
252,Longyearbyen,78.2186,15.6401,42.64,81,75,14.97,SJ,2021-09-24 05:31:01
253,Makakilo City,21.3469,-158.0858,79.12,72,75,9.22,US,2021-09-24 05:31:02
254,Carnarvon,-24.8667,113.6333,77.07,65,0,18.41,AU,2021-09-24 05:31:02
255,San Juan,-31.5375,-68.5364,66.72,25,0,5.23,AR,2021-09-24 05:30:51
256,Flinders,-34.5833,150.8552,80.2,34,9,7.0,AU,2021-09-24 05:31:03
257,Salalah,17.0151,54.0924,86.09,70,75,4.61,OM,2021-09-24 05:31:04
258,Chhor,25.5167,69.7667,94.08,49,79,2.04,PK,2021-09-24 05:31:04
259,Pisco,-13.7,-76.2167,60.03,82,35,1.14,PE,2021-09-24 05:31:05
260,Sai Buri,6.7013,101.6168,87.51,63,100,3.89,TH,2021-09-24 05:31:05
261,Imbituba,-28.24,-48.6703,62.49,83,100,8.32,BR,2021-09-24 05:31:05
262,Jiuquan,39.7432,98.5174,78.78,19,32,10.07,CN,2021-09-24 05:31:06
263,Peniche,39.3558,-9.3811,63.09,92,32,7.09,PT,2021-09-24 05:31:06
264,Pacific Grove,36.6177,-121.9166,66.02,93,90,1.01,US,2021-09-24 05:31:07
265,Quryq,43.2,51.65,76.59,27,0,20.92,KZ,2021-09-24 05:31:07
266,Cockburn Town,21.4612,-71.1419,82.44,76,100,7.54,TC,2021-09-24 05:31:08
267,Neiafu,-18.65,-173.9833,77.68,83,20,4.61,TO,2021-09-24 05:31:08
268,Luena,-11.7833,19.9167,70.41,23,98,3.09,AO,2021-09-24 05:31:08
269,Libreville,0.3925,9.4537,75.22,100,40,6.91,GA,2021-09-24 05:31:09
270,Kamskoye Ustye,55.2016,49.268,51.8,78,100,18.68,RU,2021-09-24 05:31:09
271,Omsukchan,62.5333,155.8,45.93,57,21,4.18,RU,2021-09-24 05:31:10
272,Sinnamary,5.3833,-52.95,79.25,87,72,9.82,GF,2021-09-24 05:31:10
273,Srednekolymsk,67.45,153.6833,42.73,58,100,0.87,RU,2021-09-24 05:31:10
274,Yokadouma,3.5167,15.05,68.38,99,100,1.19,CM,2021-09-24 05:31:11
275,Touros,-5.1989,-35.4608,74.3,81,63,13.89,BR,2021-09-24 05:31:11
276,Platonovka,52.7106,41.952,49.39,70,26,9.75,RU,2021-09-24 05:31:12
277,Portland,45.5234,-122.6762,64.98,78,1,1.01,US,2021-09-24 05:21:03
278,Hangu,39.2489,117.7892,69.84,83,100,15.26,CN,2021-09-24 05:31:12
279,Coahuayana Viejo,18.7333,-103.6833,77.72,94,60,1.99,MX,2021-09-24 05:31:13
280,Koboko,3.4136,30.9599,66.13,89,100,6.55,UG,2021-09-24 05:31:13
281,Kyzyl-Suu,42.3414,78.0056,63.21,31,0,10.02,KG,2021-09-24 05:31:13
282,Vallenar,-28.5708,-70.7581,64.0,27,0,0.63,CL,2021-09-24 05:31:14
283,Itoman,26.1247,127.6694,88.18,63,20,16.11,JP,2021-09-24 05:31:14
284,Thinadhoo,0.5333,72.9333,79.7,80,100,15.46,MV,2021-09-24 05:31:15
285,Veselynove,47.3567,31.2349,48.52,69,94,13.33,UA,2021-09-24 05:31:15
286,Klaksvík,62.2266,-6.589,50.92,81,100,33.24,FO,2021-09-24 05:31:16
287,Zastron,-30.3023,27.084,62.17,31,97,6.55,ZA,2021-09-24 05:31:16
288,Khatanga,71.9667,102.5,36.68,79,93,2.17,RU,2021-09-24 05:31:16
289,Alice Springs,-23.7,133.8833,80.15,7,2,6.91,AU,2021-09-24 05:27:23
290,Along,28.1667,94.7667,91.09,51,78,0.4,IN,2021-09-24 05:31:17
291,Darłowo,54.421,16.4107,56.1,82,93,25.9,PL,2021-09-24 05:31:17
292,Yulara,-25.2406,130.9889,82.24,7,44,6.91,AU,2021-09-24 05:31:18
293,Chapais,49.7834,-74.8492,53.38,98,100,12.3,CA,2021-09-24 05:31:18
294,Zhangaözen,43.3,52.8,75.96,16,0,27.2,KZ,2021-09-24 05:31:19
295,Dorado,18.4588,-66.2677,80.19,92,94,2.91,PR,2021-09-24 05:31:19
296,Boralday,43.3578,76.8594,62.46,22,20,6.71,KZ,2021-09-24 05:31:19
297,Kinablangan,7.6947,126.5503,85.21,74,98,9.64,PH,2021-09-24 05:31:20
298,Acapulco de Juárez,16.8634,-99.8901,79.5,85,61,3.85,MX,2021-09-24 05:29:13
299,Kununurra,-15.7667,128.7333,91.38,5,20,8.05,AU,2021-09-24 05:31:20
300,Grants,35.1473,-107.8514,64.63,32,75,6.91,US,2021-09-24 05:31:21
301,Bull Savanna,17.8868,-77.5902,76.17,86,24,3.36,JM,2021-09-24 05:31:22
302,Eydhafushi,5.1033,73.0708,83.3,75,63,14.43,MV,2021-09-24 05:31:22
303,Tibú,8.639,-72.7358,73.81,95,100,1.54,CO,2021-09-24 05:31:22
304,Ust'-Ilimsk,58.0006,102.6619,42.49,71,100,4.54,RU,2021-09-24 05:31:23
305,Iskateley,67.6803,53.1512,43.77,74,96,10.71,RU,2021-09-24 05:31:23
306,Chui,-33.6971,-53.4616,55.04,95,96,7.54,UY,2021-09-24 05:31:24
307,Benton Harbor,42.1167,-86.4542,52.45,82,20,4.61,US,2021-09-24 05:31:08
308,Kautokeino,69.0125,23.0412,39.18,96,100,16.64,NO,2021-09-24 05:31:24
309,Jalu,29.0331,21.5482,74.12,59,9,11.25,LY,2021-09-24 05:31:25
310,Lar,26.2039,83.9717,90.1,63,41,8.93,IN,2021-09-24 05:31:25
311,Ribas do Rio Pardo,-20.4431,-53.7592,71.71,43,71,4.43,BR,2021-09-24 05:31:26
312,Tuy Hoa,13.0833,109.3,84.16,72,100,3.69,VN,2021-09-24 05:30:22
313,Yerbogachën,61.2767,108.0108,38.41,96,100,5.01,RU,2021-09-24 05:31:26
314,Isangel,-19.55,169.2667,71.73,71,78,13.51,VU,2021-09-24 05:31:27
315,University Place,47.2356,-122.5504,60.08,83,1,0.0,US,2021-09-24 05:31:27
316,Dossor,47.5272,52.9811,67.93,23,100,33.29,KZ,2021-09-24 05:31:28
317,Maiduguri,11.8464,13.1603,74.98,79,100,6.78,NG,2021-09-24 05:31:28
318,Haines Junction,60.7522,-137.5108,33.75,93,100,0.0,CA,2021-09-24 05:31:28
319,Arraial do Cabo,-22.9661,-42.0278,67.19,65,37,17.16,BR,2021-09-24 05:31:29
320,Saint-Louis,16.3333,-15.0,81.14,59,85,7.18,SN,2021-09-24 05:31:29
321,Turochak,52.2576,87.1224,41.99,81,100,3.6,RU,2021-09-24 05:31:29
322,Atasū,48.6814,71.6433,49.64,32,0,13.67,KZ,2021-09-24 05:31:30
323,Ixtapa,20.7,-105.2,76.23,94,56,3.98,MX,2021-09-24 05:30:30
324,Jardim,-21.4803,-56.1381,73.04,55,94,9.26,BR,2021-09-24 05:31:30
325,Arinos,-15.9169,-46.1056,73.38,56,7,2.82,BR,2021-09-24 05:31:31
326,Tsimmerbude,54.675,20.1347,53.65,75,66,25.28,RU,2021-09-24 05:31:31
327,Hithadhoo,-0.6,73.0833,78.73,80,100,12.28,MV,2021-09-24 05:31:32
328,Port Blair,11.6667,92.75,84.58,72,72,13.27,IN,2021-09-24 05:31:32
329,George Town,5.4112,100.3354,89.55,62,20,5.75,MY,2021-09-24 05:30:14
330,Yatou,37.15,122.3833,72.86,65,91,6.91,CN,2021-09-24 05:31:33
331,Zapolyarnyy,69.4154,30.8136,42.08,77,100,10.92,RU,2021-09-24 05:31:33
332,Broken Hill,-31.95,141.4333,80.31,12,1,17.27,AU,2021-09-24 05:31:34
333,Warmbad,-28.45,18.7333,63.57,25,30,1.48,NA,2021-09-24 05:31:34
334,Altay,47.8667,88.1167,50.67,40,100,8.75,CN,2021-09-24 05:31:35
335,Sayansk,54.1088,102.1648,44.29,72,100,5.77,RU,2021-09-24 05:31:35
336,Okahandja,-21.9833,16.9167,69.84,9,1,1.83,NA,2021-09-24 05:31:36
337,Taganak,6.0833,118.3,87.94,72,83,6.13,PH,2021-09-24 05:31:36
338,Ebebiyin,2.1511,11.3353,68.49,98,100,2.17,GQ,2021-09-24 05:31:37
339,Doembang Nangbuat,14.8333,100.1,82.17,79,100,6.58,TH,2021-09-24 05:31:37
340,Pokaran,26.9167,71.9167,90.91,51,13,5.68,IN,2021-09-24 05:31:38
341,Big Rapids,43.6981,-85.4837,50.72,93,90,4.61,US,2021-09-24 05:31:38
342,Notre-Dame-du-Lac,47.6136,-68.7964,63.84,96,95,5.91,CA,2021-09-24 05:31:38
343,Empório,40.4833,21.55,48.83,37,7,3.09,GR,2021-09-24 05:31:39
344,Santa Cruz de La Palma,28.6835,-17.7642,71.74,68,20,6.91,ES,2021-09-24 05:31:39
345,Adrar,20.5022,-10.0711,86.2,17,76,9.98,MR,2021-09-24 05:31:40
346,Kiunga,-6.1219,141.2906,79.9,92,90,3.15,PG,2021-09-24 05:31:40
347,Forio,40.7342,13.8646,66.81,49,4,3.65,IT,2021-09-24 05:31:41
348,Chaupāl,30.95,77.5833,59.23,87,99,0.4,IN,2021-09-24 05:31:41
349,Monrovia,6.3005,-10.7969,77.0,88,79,6.15,LR,2021-09-24 05:31:42
350,Yola,9.2,12.4833,73.56,91,100,0.87,NG,2021-09-24 05:31:42
351,Riacho de Santana,-13.6092,-42.9389,68.79,68,3,8.55,BR,2021-09-24 05:31:43
352,Sur,22.5667,59.5289,90.82,54,8,3.24,OM,2021-09-24 05:31:43
353,Uinskoye,56.8817,56.5813,51.53,55,100,8.05,RU,2021-09-24 05:31:44
354,Saint-Pierre,-21.3393,55.4781,76.68,62,0,3.44,RE,2021-09-24 05:31:44
355,Show Low,34.2542,-110.0298,64.11,44,40,8.05,US,2021-09-24 05:30:07
356,Katsuura,35.1333,140.3,82.51,65,38,11.43,JP,2021-09-24 05:31:45
357,Saint Paul Harbor,57.79,-152.4072,44.11,70,75,8.05,US,2021-09-24 05:28:45
358,Belaya Gora,68.5333,146.4167,39.94,79,83,9.82,RU,2021-09-24 05:31:45
359,Henties Bay,-22.116,14.2845,54.86,84,0,5.88,NA,2021-09-24 05:31:45
360,Imuris,30.7833,-110.8667,66.92,76,36,6.31,MX,2021-09-24 05:31:46
361,Pitimbu,-7.4706,-34.8086,77.59,84,13,8.1,BR,2021-09-24 05:31:46
362,Biak,-0.9131,122.8766,79.88,82,69,6.06,ID,2021-09-24 05:31:47
363,Aranda de Duero,41.6704,-3.6892,57.83,81,92,14.25,ES,2021-09-24 05:31:47
364,Dandong,40.1292,124.3947,73.2,65,89,5.19,CN,2021-09-24 05:31:48
365,Frutal,-20.0247,-48.9406,71.64,46,29,6.96,BR,2021-09-24 05:31:48
366,Freeport,40.6576,-73.5832,69.96,83,90,1.01,US,2021-09-24 05:30:55
367,Abu Samrah,35.3029,37.1841,71.73,52,4,22.91,SY,2021-09-24 05:31:49
368,Bathsheba,13.2167,-59.5167,83.01,78,75,11.5,BB,2021-09-24 05:31:49
369,Ngorongoro,-3.2397,35.4875,56.64,65,86,8.59,TZ,2021-09-24 05:31:50
370,Buin,-33.7333,-70.75,53.64,35,0,3.6,CL,2021-09-24 05:27:47
371,Kiryat Gat,31.61,34.7642,74.08,100,32,13.09,IL,2021-09-24 05:31:50
372,Liverpool,53.4106,-2.9779,57.67,86,11,6.91,GB,2021-09-24 05:31:51
373,Kieta,-6.2167,155.6333,82.4,76,100,4.94,PG,2021-09-24 05:31:51
374,Priladozhskiy,59.85,31.4833,45.79,73,99,12.35,RU,2021-09-24 05:31:51
375,Sittwe,20.15,92.9,84.72,75,96,10.78,MM,2021-09-24 05:31:52
376,Genhe,50.7833,121.5167,61.75,45,80,6.22,CN,2021-09-24 05:31:52
377,Lewistown,40.5992,-77.5714,53.15,97,1,0.0,US,2021-09-24 05:31:53
378,Remedios,22.4947,-79.5458,74.32,86,38,2.86,CU,2021-09-24 05:31:53
379,Zhongxing,33.7039,118.6792,85.8,47,56,15.37,CN,2021-09-24 05:31:54
380,Hay River,60.8156,-115.7999,39.18,100,40,2.3,CA,2021-09-24 05:31:54
381,Puerto del Rosario,28.5004,-13.8627,69.55,83,20,8.05,ES,2021-09-24 05:31:55
382,Ca Mau,9.1769,105.15,88.21,59,100,10.94,VN,2021-09-24 05:31:55
383,Tadine,-21.55,167.8833,70.03,61,38,14.05,NC,2021-09-24 05:31:56
384,Vila,42.0304,-8.1588,56.34,92,100,5.03,PT,2021-09-24 05:31:56
385,Yenagoa,4.9247,6.2642,75.78,93,100,1.83,NG,2021-09-24 05:31:57
386,Ahipara,-35.1667,173.1667,57.72,76,78,11.74,NZ,2021-09-24 05:31:57
387,Baghdad,33.3406,44.4009,80.51,39,0,10.36,IQ,2021-09-24 05:31:01
388,Sechura,-5.5569,-80.8222,63.7,85,18,7.87,PE,2021-09-24 05:31:58
389,Abbeville,50.1,1.8333,63.5,95,100,9.04,FR,2021-09-24 05:30:23
390,Morehead,37.2711,-87.1764,51.84,96,1,0.0,US,2021-09-24 05:31:58
391,Skjervøy,70.0311,20.9714,44.35,88,100,14.61,NO,2021-09-24 05:31:58
392,Shar'ya,58.3686,45.5144,47.55,95,100,10.36,RU,2021-09-24 05:31:59
393,Sola,-13.8833,167.55,79.65,79,43,17.45,VU,2021-09-24 05:31:59
394,Ekhabi,53.5102,142.9671,53.44,64,21,10.22,RU,2021-09-24 05:32:00
395,Nosy Varika,-20.5833,48.5333,74.55,63,3,2.15,MG,2021-09-24 05:32:00
396,Cascais,38.6979,-9.4215,64.06,73,5,1.01,PT,2021-09-24 05:32:00
397,Harper,4.375,-7.7169,76.26,88,66,4.18,LR,2021-09-24 05:32:01
398,Mbuyapey,-26.2,-56.75,58.08,97,90,2.55,PY,2021-09-24 05:32:01
399,Puerto Colombia,10.9878,-74.9547,78.89,84,100,1.99,CO,2021-09-24 05:32:02
400,Cisarua,-6.6527,106.471,79.74,55,88,4.07,ID,2021-09-24 05:32:02
401,Springbok,-29.6643,17.8865,58.05,27,32,2.71,ZA,2021-09-24 05:32:02
402,Si Racha,13.1737,100.9311,87.85,77,100,11.9,TH,2021-09-24 05:32:03
403,Los Andes,-32.8337,-70.5983,49.48,22,0,4.65,CL,2021-09-24 05:32:03
404,Vila Velha,-20.3297,-40.2925,66.15,77,75,4.61,BR,2021-09-24 05:29:24
405,Opuwo,-18.0607,13.84,75.16,14,7,6.04,NA,2021-09-24 05:32:04
406,Vanino,49.0869,140.2543,56.95,60,72,4.72,RU,2021-09-24 05:32:04
407,Houlton,46.1262,-67.8403,64.81,77,90,3.44,US,2021-09-24 05:32:05
408,Kologriv,58.8275,44.3178,46.42,96,100,9.57,RU,2021-09-24 05:32:05
409,Nome,64.5011,-165.4064,35.67,65,1,0.0,US,2021-09-24 05:32:06
410,Xishan,27.6667,113.5,96.69,34,13,5.64,CN,2021-09-24 05:32:06
411,Champerico,14.3,-91.9167,82.35,78,100,7.0,GT,2021-09-24 05:32:06
412,Newport,51.5877,-2.9984,55.69,92,16,7.11,GB,2021-09-24 05:32:07
413,Omboué,-1.5746,9.2618,76.44,84,100,3.58,GA,2021-09-24 05:32:07
414,Khandyga,62.6667,135.6,53.47,47,86,0.81,RU,2021-09-24 05:32:08
415,Seymchan,62.8833,152.4333,51.46,55,29,0.63,RU,2021-09-24 05:32:08
416,Felipe Carrillo Puerto,19.5833,-88.05,72.19,99,93,2.35,MX,2021-09-24 05:32:09
417,Seoul,37.5683,126.9778,80.2,45,40,4.61,KR,2021-09-24 05:30:06
418,Basse,52.5518,9.5069,57.63,94,75,8.05,DE,2021-09-24 05:32:09
419,Churapcha,62.0025,132.4325,53.73,41,100,6.29,RU,2021-09-24 05:32:10
420,Nkowakowa,-23.8878,30.2871,62.65,30,1,2.84,ZA,2021-09-24 05:32:10
421,Atbasar,51.8,68.3333,45.34,44,0,4.85,KZ,2021-09-24 05:32:11
422,Los Llanos de Aridane,28.6585,-17.9182,67.75,82,20,6.91,ES,2021-09-24 05:32:11
423,Corcoran,36.098,-119.5604,76.95,30,94,2.93,US,2021-09-24 05:32:11
424,Codrington,-38.2667,141.9667,51.69,71,75,23.76,AU,2021-09-24 05:32:12
425,Coruripe,-10.1256,-36.1756,75.04,88,49,12.59,BR,2021-09-24 05:32:12
426,Kahului,20.8947,-156.47,78.82,66,1,16.11,US,2021-09-24 05:27:30
427,Nishihara,26.1842,127.7558,87.46,64,20,17.27,JP,2021-09-24 05:32:13
428,Vostok,46.4856,135.8833,56.39,50,3,8.1,RU,2021-09-24 05:32:13
429,Nchelenge,-9.3451,28.734,75.72,41,63,5.61,ZM,2021-09-24 05:32:14
430,Saint Anthony,45.0205,-93.218,58.91,71,1,1.01,US,2021-09-24 05:32:14
431,Agua Dulce,18.1333,-94.1333,76.24,89,98,7.85,MX,2021-09-24 05:32:15
432,Auki,-8.7676,160.7034,83.34,68,60,0.09,SB,2021-09-24 05:32:15
433,Wageningen,51.97,5.6667,60.94,94,90,6.91,NL,2021-09-24 05:32:16
434,At-Bashi,41.1702,75.8106,67.42,20,0,4.76,KG,2021-09-24 05:32:16
435,Tamandaré,-8.7597,-35.1047,75.74,86,33,9.84,BR,2021-09-24 05:32:17
436,Upata,8.0086,-62.3989,77.2,93,18,2.91,VE,2021-09-24 05:32:17
437,Honningsvåg,70.9821,25.9704,45.77,79,46,23.06,NO,2021-09-24 05:32:17
438,Bahía de Caráquez,-0.6,-80.4167,73.58,84,84,5.84,EC,2021-09-24 05:32:18
439,Pemba,-12.974,40.5178,75.9,78,75,11.5,MZ,2021-09-24 05:32:18
440,Rome,43.2128,-75.4557,61.52,87,75,0.0,US,2021-09-24 05:27:40
441,Paamiut,61.994,-49.6678,31.59,61,2,18.45,GL,2021-09-24 05:32:19
442,Rantauprapat,2.1,99.8333,91.24,55,83,3.15,ID,2021-09-24 05:32:20
443,Kudahuvadhoo,2.6708,72.8944,82.62,76,76,13.31,MV,2021-09-24 05:32:20
444,Bosanska Krupa,44.8825,16.1514,53.98,74,5,5.44,BA,2021-09-24 05:32:20
445,Yaan,7.3833,8.5667,72.01,95,100,2.89,NG,2021-09-24 05:32:21
446,Stornoway,58.2093,-6.3865,57.16,88,75,16.11,GB,2021-09-24 05:32:21
447,Tucumcari,35.1717,-103.725,71.44,26,1,8.05,US,2021-09-24 05:32:22
448,Dunedin,-45.8742,170.5036,53.8,66,74,10.54,NZ,2021-09-24 05:32:22
449,Peñarroya-Pueblonuevo,38.3,-5.2667,64.51,94,68,4.92,ES,2021-09-24 05:32:22
450,Atambua,-9.1061,124.8925,84.2,46,95,4.34,ID,2021-09-24 05:32:23
451,Soyo,-6.1349,12.3689,77.05,86,75,7.02,AO,2021-09-24 05:32:23
452,Bilma,18.6853,12.9164,83.79,13,5,7.38,NE,2021-09-24 05:32:23
453,Bethanien,-26.502,17.1583,66.2,19,8,1.36,NA,2021-09-24 05:32:24
454,Sturgeon Bay,44.8342,-87.377,53.96,58,40,9.22,US,2021-09-24 05:32:24
455,Esim,4.8699,-2.2405,75.69,93,83,6.51,GH,2021-09-24 05:32:25
456,Qasigiannguit,68.8193,-51.1922,25.05,90,75,4.9,GL,2021-09-24 05:32:25
457,Mezhdurechensk,53.6942,88.0603,41.9,71,63,3.56,RU,2021-09-24 05:32:25
458,Assiut,27.181,31.1837,75.38,46,0,9.44,EG,2021-09-24 05:32:26
459,Shenjiamen,29.9576,122.298,79.27,66,63,10.29,CN,2021-09-24 05:32:26
460,Cherskiy,68.75,161.3,32.2,67,93,3.89,RU,2021-09-24 05:32:27
461,Arrondissement de Bergerac,44.8333,0.5,60.53,100,90,2.3,FR,2021-09-24 05:32:27
462,New Waterford,40.8451,-80.6145,53.17,85,54,5.01,US,2021-09-24 05:32:28
463,Petatlán,17.5167,-101.2667,77.25,90,76,3.31,MX,2021-09-24 05:32:28
464,Kalamare,-22.9337,26.5703,64.45,37,0,13.47,BW,2021-09-24 05:32:29
465,Salinópolis,-0.6136,-47.3561,78.37,85,52,8.12,BR,2021-09-24 05:32:29
466,Amapá,1.0,-52.0,68.92,99,77,0.98,BR,2021-09-24 05:32:29
467,Oranjemund,-28.55,16.4333,56.79,84,5,8.79,NA,2021-09-24 05:32:30
468,Palmer,42.1584,-72.3287,74.8,77,75,4.0,US,2021-09-24 05:32:30
469,Carnot,4.9409,15.8665,69.85,96,100,2.66,CF,2021-09-24 05:32:31
470,Cuajinicuilapa,16.4667,-98.4167,77.9,86,94,2.1,MX,2021-09-24 05:32:31
471,Krasnosel'kup,65.7,82.4667,39.99,60,45,17.07,RU,2021-09-24 05:32:32
472,Nainpur,22.4333,80.1167,82.99,77,65,5.79,IN,2021-09-24 05:32:32
473,Laas,46.6166,10.7002,52.68,28,5,5.17,IT,2021-09-24 05:32:33
474,Launceston,-41.45,147.1667,55.04,54,40,28.77,AU,2021-09-24 05:32:33
475,Rosarito,32.3333,-117.0333,70.41,67,1,3.85,MX,2021-09-24 05:32:33
476,Guerrero Negro,27.9769,-114.0611,72.91,80,82,9.4,MX,2021-09-24 05:32:34
477,Galesong,-5.3166,119.3661,87.82,63,80,8.7,ID,2021-09-24 05:32:34
478,Murgab,37.4966,61.9714,78.67,31,0,6.91,TM,2021-09-24 05:32:34
479,Kānkon,15.0167,74.0167,80.65,81,100,3.38,IN,2021-09-24 05:32:35
480,Sept-Îles,50.2001,-66.3821,52.32,90,90,1.99,CA,2021-09-24 05:29:23
481,Huilong,31.8111,121.655,83.98,69,46,14.85,CN,2021-09-24 05:32:35
482,Santa Maria,-29.6842,-53.8069,52.0,98,62,1.97,BR,2021-09-24 05:32:36
483,Mangla,31.8931,72.3817,89.37,50,0,7.94,PK,2021-09-24 05:32:36
484,Pont-Audemer,49.35,0.5167,59.92,90,93,5.3,FR,2021-09-24 05:32:37
485,Hualmay,-11.0964,-77.6139,62.01,84,51,7.11,PE,2021-09-24 05:32:37
486,Grand Gaube,-20.0064,57.6608,76.37,72,11,11.01,MU,2021-09-24 05:32:37
487,Etchojoa,26.9167,-109.6333,84.69,70,29,3.38,MX,2021-09-24 05:32:38
488,Dharān,26.8125,87.2835,86.67,62,12,5.19,NP,2021-09-24 05:32:38
489,Cabedelo,-6.9811,-34.8339,77.67,83,14,11.21,BR,2021-09-24 05:32:39
490,Ostrovnoy,68.0531,39.5131,46.09,77,41,15.08,RU,2021-09-24 05:32:39
491,Kovdor,67.5662,30.4758,42.93,90,100,10.4,RU,2021-09-24 05:32:40
492,Bolkhov,53.4433,36.0044,43.9,86,100,14.99,RU,2021-09-24 05:32:40
493,Susanville,40.4163,-120.653,56.08,36,100,4.0,US,2021-09-24 05:29:02
494,Mil'kovo,54.7167,158.6167,52.93,63,20,1.63,RU,2021-09-24 05:32:41
495,San Jose de Guanipa,8.8872,-64.1651,76.55,76,54,7.27,VE,2021-09-24 05:32:41
496,Ucluelet,48.9329,-125.5528,57.09,88,17,3.38,CA,2021-09-24 05:32:08
497,Moyale,3.5167,39.0584,69.46,58,88,14.34,KE,2021-09-24 05:32:42
498,Baikunthpur,23.25,82.55,84.61,68,44,6.33,IN,2021-09-24 05:32:42
499,Muramvya,-3.2682,29.6079,66.58,53,96,3.98,BI,2021-09-24 05:32:42
500,Colorado,-22.8375,-51.9731,64.29,55,77,8.23,BR,2021-09-24 05:32:43
501,Lagos,6.5833,3.75,77.32,94,89,1.34,NG,2021-09-24 05:28:19
502,Camopi,3.1655,-52.3158,69.1,99,100,2.24,GF,2021-09-24 05:32:44
503,Halifax,44.6453,-63.5724,62.65,99,1,0.0,CA,2021-09-24 05:28:01
504,Nurota,40.5614,65.6886,71.69,13,0,12.41,UZ,2021-09-24 05:32:44
505,Pestravka,52.405,49.9583,53.82,62,100,17.4,RU,2021-09-24 05:32:45
506,Lázaro Cárdenas,17.9583,-102.2,78.85,90,65,3.4,MX,2021-09-24 05:32:45
507,Tiznit Province,29.5833,-9.5,62.13,79,17,1.34,MA,2021-09-24 05:32:45
508,Taoudenni,22.6783,-3.9836,89.28,15,1,4.83,ML,2021-09-24 05:32:46
509,Gijang,35.2442,129.2139,78.53,65,53,16.44,KR,2021-09-24 05:32:46
510,Zhicheng,30.2956,111.5047,94.48,49,28,9.75,CN,2021-09-24 05:32:47
511,Mpika,-11.8343,31.4529,69.78,48,21,11.23,ZM,2021-09-24 05:32:47
512,Vilhena,-12.7406,-60.1458,79.74,39,43,3.62,BR,2021-09-24 05:32:47
513,Tamworth,52.634,-1.6959,53.78,90,1,4.0,GB,2021-09-24 05:29:47
514,Sidi Ali,36.0998,0.4206,71.06,90,95,1.32,DZ,2021-09-24 05:32:48
515,Takoradze,4.8845,-1.7554,75.45,93,97,6.33,GH,2021-09-24 05:32:49
516,Casper,42.8666,-106.3131,57.51,47,1,3.0,US,2021-09-24 05:32:49
517,Oistins,13.0667,-59.5333,82.49,78,75,11.5,BB,2021-09-24 05:32:50
518,Morant Bay,17.8815,-76.4093,82.02,83,22,1.68,JM,2021-09-24 05:32:50
519,Lucapa,-8.4192,20.7447,69.22,74,100,4.23,AO,2021-09-24 05:32:50
520,Pattaya,12.9333,100.8833,87.84,77,100,11.59,TH,2021-09-24 05:32:51
521,Sabang,5.8933,95.3214,83.08,72,84,6.26,ID,2021-09-24 05:32:51
522,Sobolevo,54.4299,31.8996,43.0,95,100,19.77,RU,2021-09-24 05:32:52
523,Labuhan,-6.8844,112.2051,84.2,65,95,7.81,ID,2021-09-24 05:32:52
524,Almonte,37.2647,-6.5167,69.66,85,30,4.59,ES,2021-09-24 05:32:52
525,Savé,8.0425,2.486,73.02,97,97,2.71,BJ,2021-09-24 05:32:53
526,Iporá,-16.4419,-51.1178,82.08,29,93,6.89,BR,2021-09-24 05:32:53
527,Arteaga,18.4667,-102.4167,65.73,97,99,2.57,MX,2021-09-24 05:32:54
528,Raudeberg,61.9875,5.1352,47.19,88,100,8.99,NO,2021-09-24 05:32:54
529,Pascagoula,30.3658,-88.5561,62.65,97,1,0.0,US,2021-09-24 05:32:55
530,Berlevåg,70.8578,29.0864,46.35,71,40,14.97,NO,2021-09-24 05:32:55
531,Ierapetra,35.01,25.7353,68.18,52,0,23.38,GR,2021-09-24 05:32:56
532,Coquimbo,-29.9533,-71.3436,51.53,87,0,0.0,CL,2021-09-24 05:32:56
533,Kingman,35.1894,-114.053,78.28,32,1,1.01,US,2021-09-24 05:32:56
534,Mīzan Teferī,6.9833,35.5833,63.05,96,100,2.64,ET,2021-09-24 05:32:57
535,Linhares,-19.3911,-40.0722,63.64,76,62,2.98,BR,2021-09-24 05:32:57
536,Coyhaique,-45.5752,-72.0662,49.95,76,0,5.75,CL,2021-09-24 05:32:58
537,Te Anau,-45.4167,167.7167,42.17,97,96,5.88,NZ,2021-09-24 05:32:58
538,Am Timan,11.0297,20.2827,75.0,85,82,5.66,TD,2021-09-24 05:32:59
539,Mokhsogollokh,61.4681,128.9203,45.36,94,100,3.2,RU,2021-09-24 05:32:59
540,Daru,-9.0763,143.2092,77.81,84,99,15.26,PG,2021-09-24 05:32:59
541,Atotonilco el Grande,20.2833,-98.6667,53.33,94,90,2.17,MX,2021-09-24 05:33:00
542,Sangar,63.9242,127.4739,42.87,93,100,4.43,RU,2021-09-24 05:33:00
543,Mastic Beach,40.7668,-72.8521,75.38,88,90,3.0,US,2021-09-24 05:33:01
544,Mossamedes,-15.1961,12.1522,67.17,92,39,0.96,AO,2021-09-24 05:33:01
545,Ryōtsu-minato,38.0833,138.4333,73.36,68,69,15.14,JP,2021-09-24 05:33:01
